<?xml version="1.0" encoding="UTF-8" standalone="yes"?>
<sucursales>
    <sucursal>
        <nombre>nombre</nombre>
        <latitud>latitud</latitud>
        <longitud>longitud</longitud>
        <tipo>tipo</tipo>
        <direccion>direccion</direccion>
        <telefono>telefono</telefono>
    </sucursal>
    <sucursal>
        <nombre>ABRAHAM KANAN HUEBE</nombre>
        <latitud>20.117241</latitud>
        <longitud>-98.721565</longitud>
        <tipo>CE - UNIDAD DE CONSULTA EXTERNA</tipo>
        <direccion>FERNANDEZ DE LIZARDI</direccion>
        <telefono>(771) 7199486</telefono>
    </sucursal>
    <sucursal>
        <nombre>ACAHUASCO</nombre>
        <latitud>20.962996</latitud>
        <longitud>-98.597778</longitud>
        <tipo>CE - UNIDAD DE CONSULTA EXTERNA</tipo>
        <direccion>SANTA CECILIA</direccion>
        <telefono>No disponible</telefono>
    </sucursal>
    <sucursal>
        <nombre>ACANOA</nombre>
        <latitud>20.7967</latitud>
        <longitud>-98.2689</longitud>
        <tipo>CE - UNIDAD DE CONSULTA EXTERNA</tipo>
        <direccion>DOMICILIO CONOCIDO</direccion>
        <telefono>No disponible</telefono>
    </sucursal>
    <sucursal>
        <nombre>ACAPA (SANTIAGO ACAPA)</nombre>
        <latitud>20.9011</latitud>
        <longitud>-98.9022</longitud>
        <tipo>CE - UNIDAD DE CONSULTA EXTERNA</tipo>
        <direccion>DOMICILIO CONOCIDO</direccion>
        <telefono>No disponible</telefono>
    </sucursal>
    <sucursal>
        <nombre>ACATEPEC</nombre>
        <latitud>20.9081</latitud>
        <longitud>-98.7156</longitud>
        <tipo>CE - UNIDAD DE CONSULTA EXTERNA</tipo>
        <direccion>DOMICILIO CONOCIDO</direccion>
        <telefono>No disponible</telefono>
    </sucursal>
    <sucursal>
        <nombre>ACATEPEC</nombre>
        <latitud>20.952223</latitud>
        <longitud>-98.273331</longitud>
        <tipo>CE - UNIDAD DE CONSULTA EXTERNA</tipo>
        <direccion>NO DISPONIBLE</direccion>
        <telefono>(789) 8960660</telefono>
    </sucursal>
    <sucursal>
        <nombre>ACATIPA</nombre>
        <latitud>21.049658</latitud>
        <longitud>-98.575089</longitud>
        <tipo>CE - UNIDAD DE CONSULTA EXTERNA</tipo>
        <direccion>NO DISPONIBLE</direccion>
        <telefono>No disponible</telefono>
    </sucursal>
    <sucursal>
        <nombre>ACATL'c1N</nombre>
        <latitud>20.145416</latitud>
        <longitud>-98.440567</longitud>
        <tipo>CE - UNIDAD DE CONSULTA EXTERNA</tipo>
        <direccion>INDEPENDENCIA Y 16 DE SEPTIEMBRE</direccion>
        <telefono>(775) 1122420</telefono>
    </sucursal>
    <sucursal>
        <nombre>ACAXOCHITL'c1N</nombre>
        <latitud>20.160336</latitud>
        <longitud>-98.202957</longitud>
        <tipo>CE - UNIDAD DE CONSULTA EXTERNA</tipo>
        <direccion>CUAUHT'c9MOC</direccion>
        <telefono>No disponible</telefono>
    </sucursal>
    <sucursal>
        <nombre>ACAYUCA</nombre>
        <latitud>20.964443</latitud>
        <longitud>-98.78083</longitud>
        <tipo>CE - UNIDAD DE CONSULTA EXTERNA</tipo>
        <direccion>PRINCIPAL</direccion>
        <telefono>No disponible</telefono>
    </sucursal>
    <sucursal>
        <nombre>ACAYUCA</nombre>
        <latitud>20.021641</latitud>
        <longitud>-98.841377</longitud>
        <tipo>CE - UNIDAD DE CONSULTA EXTERNA</tipo>
        <direccion>DIVISION DEL NORTE</direccion>
        <telefono>No disponible</telefono>
    </sucursal>
    <sucursal>
        <nombre>ACHICHILCO</nombre>
        <latitud>20.185213</latitud>
        <longitud>-99.272491</longitud>
        <tipo>CE - UNIDAD DE CONSULTA EXTERNA</tipo>
        <direccion>DOMICILIO CONOCIDO</direccion>
        <telefono>No disponible</telefono>
    </sucursal>
    <sucursal>
        <nombre>ACOXCATL'c1N</nombre>
        <latitud>20.9739</latitud>
        <longitud>-98.7775</longitud>
        <tipo>CE - UNIDAD DE CONSULTA EXTERNA</tipo>
        <direccion>DOMICILIO CONOCIDO</direccion>
        <telefono>No disponible</telefono>
    </sucursal>
    <sucursal>
        <nombre>ACOYOTLA</nombre>
        <latitud>21.1254</latitud>
        <longitud>-98.7772</longitud>
        <tipo>CE - UNIDAD DE CONSULTA EXTERNA</tipo>
        <direccion>DOMICILIO CONOCIDO</direccion>
        <telefono>No disponible</telefono>
    </sucursal>
    <sucursal>
        <nombre>ACTOPAN</nombre>
        <latitud>20.2766</latitud>
        <longitud>-98.9464</longitud>
        <tipo>CE - UNIDAD DE CONSULTA EXTERNA</tipo>
        <direccion>ALTAMIRANO 200 COL. AVIACION</direccion>
        <telefono>(772) 7281612</telefono>
    </sucursal>
    <sucursal>
        <nombre>ACTOPAN</nombre>
        <latitud>20.261761</latitud>
        <longitud>-98.942322</longitud>
        <tipo>CE - UNIDAD DE CONSULTA EXTERNA</tipo>
        <direccion>AVENIDA 5 DE MAYO</direccion>
        <telefono>(772) 7270044</telefono>
    </sucursal>
    <sucursal>
        <nombre>ACUIMANTLA</nombre>
        <latitud>21.035</latitud>
        <longitud>-98.798058</longitud>
        <tipo>CE - UNIDAD DE CONSULTA EXTERNA</tipo>
        <direccion>NOGALES</direccion>
        <telefono>(789) 8961539</telefono>
    </sucursal>
    <sucursal>
        <nombre>AGUA BENDITA</nombre>
        <latitud>20.4295</latitud>
        <longitud>-98.6266</longitud>
        <tipo>CE - UNIDAD DE CONSULTA EXTERNA</tipo>
        <direccion>DOMICILIO CONOCIDO</direccion>
        <telefono>No disponible</telefono>
    </sucursal>
    <sucursal>
        <nombre>AGUA BLANCA ITURBIDE</nombre>
        <latitud>20.348942</latitud>
        <longitud>-98.357498</longitud>
        <tipo>CE - UNIDAD DE CONSULTA EXTERNA</tipo>
        <direccion>JU'c1REZ</direccion>
        <telefono>No disponible</telefono>
    </sucursal>
    <sucursal>
        <nombre>AGUA DEL CUERVO</nombre>
        <latitud>20.821901</latitud>
        <longitud>-98.927895</longitud>
        <tipo>CE - UNIDAD DE CONSULTA EXTERNA</tipo>
        <direccion>EN LA ENTRADA PRINCIPAL</direccion>
        <telefono>No disponible</telefono>
    </sucursal>
    <sucursal>
        <nombre>AGUACATITLA</nombre>
        <latitud>20.8613</latitud>
        <longitud>-98.428</longitud>
        <tipo>CE - UNIDAD DE CONSULTA EXTERNA</tipo>
        <direccion>DOMICILIO CONOCIDO</direccion>
        <telefono>No disponible</telefono>
    </sucursal>
    <sucursal>
        <nombre>AGUAS BLANCAS</nombre>
        <latitud>20.659269</latitud>
        <longitud>-99.41629</longitud>
        <tipo>CE - UNIDAD DE CONSULTA EXTERNA</tipo>
        <direccion>A UN LADO DE LA ESCUELA PRIMARIA</direccion>
        <telefono>(200) 1232542</telefono>
    </sucursal>
    <sucursal>
        <nombre>AHUACATL'c1N</nombre>
        <latitud>20.8906</latitud>
        <longitud>-98.6442</longitud>
        <tipo>CE - UNIDAD DE CONSULTA EXTERNA</tipo>
        <direccion>DOMICILIO CONOCIDO</direccion>
        <telefono>No disponible</telefono>
    </sucursal>
    <sucursal>
        <nombre>AHUATITLA</nombre>
        <latitud>21.170378</latitud>
        <longitud>-98.615959</longitud>
        <tipo>CE - UNIDAD DE CONSULTA EXTERNA</tipo>
        <direccion>AHUATL</direccion>
        <telefono>No disponible</telefono>
    </sucursal>
    <sucursal>
        <nombre>AJACUBA</nombre>
        <latitud>20.094076</latitud>
        <longitud>-99.124031</longitud>
        <tipo>CE - UNIDAD DE CONSULTA EXTERNA</tipo>
        <direccion>AVENIDA REFORMA ESQUINA 16 DE ENERO</direccion>
        <telefono>(778) 7824143</telefono>
    </sucursal>
    <sucursal>
        <nombre>ALCANTARILLAS</nombre>
        <latitud>19.7964</latitud>
        <longitud>-98.3831</longitud>
        <tipo>CE - UNIDAD DE CONSULTA EXTERNA</tipo>
        <direccion>DOMICILIO CONOCIDO</direccion>
        <telefono>No disponible</telefono>
    </sucursal>
    <sucursal>
        <nombre>ALCHOLOYA EL SALTO</nombre>
        <latitud>20.224674</latitud>
        <longitud>-98.453545</longitud>
        <tipo>CE - UNIDAD DE CONSULTA EXTERNA</tipo>
        <direccion>BARRIO EL POTRERO A UN LADO TELESECUNDARIA 212</direccion>
        <telefono>No disponible</telefono>
    </sucursal>
    <sucursal>
        <nombre>ALFAJAYUCAN</nombre>
        <latitud>20.408056</latitud>
        <longitud>-99.34861</longitud>
        <tipo>CE - UNIDAD DE CONSULTA EXTERNA</tipo>
        <direccion>NO DISPONIBLE</direccion>
        <telefono>(738) 7288018</telefono>
    </sucursal>
    <sucursal>
        <nombre>ALJIBES</nombre>
        <latitud>20.6164</latitud>
        <longitud>-99.5038</longitud>
        <tipo>CE - UNIDAD DE CONSULTA EXTERNA</tipo>
        <direccion>DOMICILIO CONOCIDO</direccion>
        <telefono>No disponible</telefono>
    </sucursal>
    <sucursal>
        <nombre>ALMOLOYA</nombre>
        <latitud>20.021957</latitud>
        <longitud>-98.316803</longitud>
        <tipo>CE - UNIDAD DE CONSULTA EXTERNA</tipo>
        <direccion>RUMBO A VENTORILLO</direccion>
        <telefono>No disponible</telefono>
    </sucursal>
    <sucursal>
        <nombre>ALMOLOYA</nombre>
        <latitud>19.702337</latitud>
        <longitud>-98.403084</longitud>
        <tipo>CE - UNIDAD DE CONSULTA EXTERNA</tipo>
        <direccion>HIDALGO</direccion>
        <telefono>(748) 9122177</telefono>
    </sucursal>
    <sucursal>
        <nombre>ALTEPEMILA</nombre>
        <latitud>20.0135</latitud>
        <longitud>-98.382</longitud>
        <tipo>CE - UNIDAD DE CONSULTA EXTERNA</tipo>
        <direccion>DOMICILIO CONOCIDO</direccion>
        <telefono>No disponible</telefono>
    </sucursal>
    <sucursal>
        <nombre>AM'c1XAC I</nombre>
        <latitud>21.1358</latitud>
        <longitud>-98.5064</longitud>
        <tipo>CE - UNIDAD DE CONSULTA EXTERNA</tipo>
        <direccion>DOMICILIO CONOCIDO</direccion>
        <telefono>No disponible</telefono>
    </sucursal>
    <sucursal>
        <nombre>AMOLA DE OCAMPO</nombre>
        <latitud>21.070677</latitud>
        <longitud>-98.896255</longitud>
        <tipo>CE - UNIDAD DE CONSULTA EXTERNA</tipo>
        <direccion>NO DISPONIBLE</direccion>
        <telefono>No disponible</telefono>
    </sucursal>
    <sucursal>
        <nombre>APAN</nombre>
        <latitud>19.7104</latitud>
        <longitud>-98.4582</longitud>
        <tipo>CE - UNIDAD DE CONSULTA EXTERNA</tipo>
        <direccion>HIDALGO</direccion>
        <telefono>(748) 9126830</telefono>
    </sucursal>
    <sucursal>
        <nombre>APAN</nombre>
        <latitud>19.709236</latitud>
        <longitud>-98.451714</longitud>
        <tipo>CE - UNIDAD DE CONSULTA EXTERNA</tipo>
        <direccion>ZARAGOZA NORTE</direccion>
        <telefono>(748) 9120082</telefono>
    </sucursal>
    <sucursal>
        <nombre>APANTLAZOL</nombre>
        <latitud>20.9893</latitud>
        <longitud>-98.5834</longitud>
        <tipo>CE - UNIDAD DE CONSULTA EXTERNA</tipo>
        <direccion>DOMICILIO CONOCIDO</direccion>
        <telefono>No disponible</telefono>
    </sucursal>
    <sucursal>
        <nombre>AQUILASTEC</nombre>
        <latitud>21.017109</latitud>
        <longitud>-98.757645</longitud>
        <tipo>CE - UNIDAD DE CONSULTA EXTERNA</tipo>
        <direccion>NO DISPONIBLE</direccion>
        <telefono>No disponible</telefono>
    </sucursal>
    <sucursal>
        <nombre>ARENAL</nombre>
        <latitud>20.221745</latitud>
        <longitud>-98.907417</longitud>
        <tipo>CE - UNIDAD DE CONSULTA EXTERNA</tipo>
        <direccion>AVENIDA JU'c1REZ</direccion>
        <telefono>No disponible</telefono>
    </sucursal>
    <sucursal>
        <nombre>ATECOXCO</nombre>
        <latitud>20.825666</latitud>
        <longitud>-98.467804</longitud>
        <tipo>CE - UNIDAD DE CONSULTA EXTERNA</tipo>
        <direccion>NO DISPONIBLE</direccion>
        <telefono>No disponible</telefono>
    </sucursal>
    <sucursal>
        <nombre>ATEMPA</nombre>
        <latitud>20.8834</latitud>
        <longitud>-98.49</longitud>
        <tipo>CE - UNIDAD DE CONSULTA EXTERNA</tipo>
        <direccion>DOMICILIO CONOCIDO</direccion>
        <telefono>No disponible</telefono>
    </sucursal>
    <sucursal>
        <nombre>ATENGO</nombre>
        <latitud>20.174335</latitud>
        <longitud>-99.324944</longitud>
        <tipo>CE - UNIDAD DE CONSULTA EXTERNA</tipo>
        <direccion>AVENIDA 18 DE MARZO</direccion>
        <telefono>No disponible</telefono>
    </sucursal>
    <sucursal>
        <nombre>ATITALAQUIA</nombre>
        <latitud>20.060471</latitud>
        <longitud>-99.221046</longitud>
        <tipo>CE - UNIDAD DE CONSULTA EXTERNA</tipo>
        <direccion>AVENIDA NORTE</direccion>
        <telefono>(778) 7374401</telefono>
    </sucursal>
    <sucursal>
        <nombre>ATLALCO</nombre>
        <latitud>20.914625</latitud>
        <longitud>-98.328194</longitud>
        <tipo>CE - UNIDAD DE CONSULTA EXTERNA</tipo>
        <direccion>CERCA DE LA CAPILLA</direccion>
        <telefono>(789) 8960684</telefono>
    </sucursal>
    <sucursal>
        <nombre>ATLALCO</nombre>
        <latitud>20.817499</latitud>
        <longitud>-98.284721</longitud>
        <tipo>CE - UNIDAD DE CONSULTA EXTERNA</tipo>
        <direccion>CARRETERA A ACANOA</direccion>
        <telefono>No disponible</telefono>
    </sucursal>
    <sucursal>
        <nombre>ATLAPEXCO</nombre>
        <latitud>21.022186</latitud>
        <longitud>-98.34549</longitud>
        <tipo>CE - UNIDAD DE CONSULTA EXTERNA</tipo>
        <direccion>PROLONGACI'd3N AVENIDA REVOLUCI'd3N</direccion>
        <telefono>(789) 8944082</telefono>
    </sucursal>
    <sucursal>
        <nombre>ATOPIXCO</nombre>
        <latitud>20.6022</latitud>
        <longitud>-98.608</longitud>
        <tipo>CE - UNIDAD DE CONSULTA EXTERNA</tipo>
        <direccion>DOMICILIO CONOCIDO</direccion>
        <telefono>No disponible</telefono>
    </sucursal>
    <sucursal>
        <nombre>ATOTONILCO DE TULA</nombre>
        <latitud>20.00816928</latitud>
        <longitud>-99.22149852</longitud>
        <tipo>CE - UNIDAD DE CONSULTA EXTERNA</tipo>
        <direccion>REP'daBLICA DEL SALVADOR</direccion>
        <telefono>(778) 7350051</telefono>
    </sucursal>
    <sucursal>
        <nombre>ATOTONILCO EL GRANDE</nombre>
        <latitud>20.3048</latitud>
        <longitud>-98.682999</longitud>
        <tipo>CE - UNIDAD DE CONSULTA EXTERNA</tipo>
        <direccion>AVENIDA JORGE VIESCA PALMA</direccion>
        <telefono>(774) 7430760</telefono>
    </sucursal>
    <sucursal>
        <nombre>ATOTONILCO EL GRANDE</nombre>
        <latitud>20.283453</latitud>
        <longitud>-98.671378</longitud>
        <tipo>CE - UNIDAD DE CONSULTA EXTERNA</tipo>
        <direccion>CAMINO SAN MIGUEL</direccion>
        <telefono>(774) 7432308</telefono>
    </sucursal>
    <sucursal>
        <nombre>AZOYATLA</nombre>
        <latitud>20.097686</latitud>
        <longitud>-98.696729</longitud>
        <tipo>CE - UNIDAD DE CONSULTA EXTERNA</tipo>
        <direccion>HIDALGO EN LA ENTRADA DE LA LOCALIDAD</direccion>
        <telefono>(771) 1896482</telefono>
    </sucursal>
    <sucursal>
        <nombre>BATHA Y BARR'edOS</nombre>
        <latitud>20.244167</latitud>
        <longitud>-99.72361</longitud>
        <tipo>CE - UNIDAD DE CONSULTA EXTERNA</tipo>
        <direccion>CENTRO DE LA LOCALIDAD</direccion>
        <telefono>No disponible</telefono>
    </sucursal>
    <sucursal>
        <nombre>BENITO JU'c1REZ</nombre>
        <latitud>20.161111</latitud>
        <longitud>-98.825833</longitud>
        <tipo>CE - UNIDAD DE CONSULTA EXTERNA</tipo>
        <direccion>AVENIDA BENEM'c9RITO DE LAS AM'c9RICAS</direccion>
        <telefono>(773) 1168611</telefono>
    </sucursal>
    <sucursal>
        <nombre>BENITO JU'c1REZ</nombre>
        <latitud>19.891138</latitud>
        <longitud>-98.806854</longitud>
        <tipo>CE - UNIDAD DE CONSULTA EXTERNA</tipo>
        <direccion>NO DISPONIBLE</direccion>
        <telefono>No disponible</telefono>
    </sucursal>
    <sucursal>
        <nombre>BENITO JU'c1REZ</nombre>
        <latitud>20.2941</latitud>
        <longitud>-99.1462</longitud>
        <tipo>CE - UNIDAD DE CONSULTA EXTERNA</tipo>
        <direccion>DOMICILIO CONOCIDO</direccion>
        <telefono>No disponible</telefono>
    </sucursal>
    <sucursal>
        <nombre>BETH'cd</nombre>
        <latitud>20.394247</latitud>
        <longitud>-99.223923</longitud>
        <tipo>CE - UNIDAD DE CONSULTA EXTERNA</tipo>
        <direccion>NO DISPONIBLE</direccion>
        <telefono>No disponible</telefono>
    </sucursal>
    <sucursal>
        <nombre>BOJAY, HGO.</nombre>
        <latitud>20.04523</latitud>
        <longitud>-99.244159</longitud>
        <tipo>CE - UNIDAD DE CONSULTA EXTERNA</tipo>
        <direccion>ABETO ESQUINA AVENIDA DEL BOSQUE</direccion>
        <telefono>No disponible</telefono>
    </sucursal>
    <sucursal>
        <nombre>BOMINTZHA</nombre>
        <latitud>20.011578</latitud>
        <longitud>-99.269691</longitud>
        <tipo>CE - UNIDAD DE CONSULTA EXTERNA</tipo>
        <direccion>PLAZA DE LA CONSTITUCI'd3N</direccion>
        <telefono>(773) 7310036</telefono>
    </sucursal>
    <sucursal>
        <nombre>BONDOJITO</nombre>
        <latitud>20.4436</latitud>
        <longitud>-99.6963</longitud>
        <tipo>CE - UNIDAD DE CONSULTA EXTERNA</tipo>
        <direccion>DOMICILIO CONOCIDO</direccion>
        <telefono>No disponible</telefono>
    </sucursal>
    <sucursal>
        <nombre>BOXAXNI</nombre>
        <latitud>20.345278</latitud>
        <longitud>-98.944443</longitud>
        <tipo>CE - UNIDAD DE CONSULTA EXTERNA</tipo>
        <direccion>CARRETERA SANTIAGO DE ANAYA</direccion>
        <telefono>No disponible</telefono>
    </sucursal>
    <sucursal>
        <nombre>BOXTHA</nombre>
        <latitud>20.259722</latitud>
        <longitud>-98.974167</longitud>
        <tipo>CE - UNIDAD DE CONSULTA EXTERNA</tipo>
        <direccion>CERRITO</direccion>
        <telefono>No disponible</telefono>
    </sucursal>
    <sucursal>
        <nombre>BUENA VISTA</nombre>
        <latitud>20.326</latitud>
        <longitud>-98.4562</longitud>
        <tipo>CE - UNIDAD DE CONSULTA EXTERNA</tipo>
        <direccion>DOMICILIO CONOCIDO</direccion>
        <telefono>No disponible</telefono>
    </sucursal>
    <sucursal>
        <nombre>BUENAVISTA</nombre>
        <latitud>20.9908</latitud>
        <longitud>-98.9743</longitud>
        <tipo>CE - UNIDAD DE CONSULTA EXTERNA</tipo>
        <direccion>DOMICILIO CONOCIDO</direccion>
        <telefono>No disponible</telefono>
    </sucursal>
    <sucursal>
        <nombre>CAHUAZAS HACIENDA DE CAHUAZAS</nombre>
        <latitud>21.139723</latitud>
        <longitud>-98.855278</longitud>
        <tipo>CE - UNIDAD DE CONSULTA EXTERNA</tipo>
        <direccion>FRENTE A LA CAN</direccion>
        <telefono>(200) 1233721</telefono>
    </sucursal>
    <sucursal>
        <nombre>CAHUAZAZ DE MORELOS</nombre>
        <latitud>21.086</latitud>
        <longitud>-98.89</longitud>
        <tipo>CE - UNIDAD DE CONSULTA EXTERNA</tipo>
        <direccion>POR LA CANCHA</direccion>
        <telefono>No disponible</telefono>
    </sucursal>
    <sucursal>
        <nombre>CALNALI</nombre>
        <latitud>20.8972</latitud>
        <longitud>-98.580002</longitud>
        <tipo>CE - UNIDAD DE CONSULTA EXTERNA</tipo>
        <direccion>CUAUHT'c9MOC</direccion>
        <telefono>(774) 9742049</telefono>
    </sucursal>
    <sucursal>
        <nombre>CALNALI</nombre>
        <latitud>20.898228</latitud>
        <longitud>-98.582554</longitud>
        <tipo>CE - UNIDAD DE CONSULTA EXTERNA</tipo>
        <direccion>AVENIDA CUAHUT'c9MOC</direccion>
        <telefono>(774) 9742067</telefono>
    </sucursal>
    <sucursal>
        <nombre>CALTIMAC'c1N</nombre>
        <latitud>20.5375</latitud>
        <longitud>-99.3692</longitud>
        <tipo>CE - UNIDAD DE CONSULTA EXTERNA</tipo>
        <direccion>DOMICILIO CONOCIDO</direccion>
        <telefono>No disponible</telefono>
    </sucursal>
    <sucursal>
        <nombre>CA'd1ADA</nombre>
        <latitud>20.17494</latitud>
        <longitud>-99.187668</longitud>
        <tipo>CE - UNIDAD DE CONSULTA EXTERNA</tipo>
        <direccion>AVENIDA 16 DE SEPTIEMBRE</direccion>
        <telefono>No disponible</telefono>
    </sucursal>
    <sucursal>
        <nombre>CA'd1ADA CHICA ANTIGUA</nombre>
        <latitud>20.305279</latitud>
        <longitud>-98.949997</longitud>
        <tipo>CE - UNIDAD DE CONSULTA EXTERNA</tipo>
        <direccion>EN EL CENTRO ENFRENTE DE LA PRIMARIA</direccion>
        <telefono>No disponible</telefono>
    </sucursal>
    <sucursal>
        <nombre>CA'd1ADA CHICA AVIACION</nombre>
        <latitud>20.283199</latitud>
        <longitud>-98.953598</longitud>
        <tipo>CE - UNIDAD DE CONSULTA EXTERNA</tipo>
        <direccion>NO DISPONIBLE</direccion>
        <telefono>No disponible</telefono>
    </sucursal>
    <sucursal>
        <nombre>CA'd1ADA GRANDE</nombre>
        <latitud>20.308889</latitud>
        <longitud>-99.000557</longitud>
        <tipo>CE - UNIDAD DE CONSULTA EXTERNA</tipo>
        <direccion>POR EL CAMPO DE FUTBOL</direccion>
        <telefono>No disponible</telefono>
    </sucursal>
    <sucursal>
        <nombre>CANDELARIA</nombre>
        <latitud>20.564445</latitud>
        <longitud>-99.31028</longitud>
        <tipo>CE - UNIDAD DE CONSULTA EXTERNA</tipo>
        <direccion>ATRAS DEL JARD'cdN DE NI'd1OS</direccion>
        <telefono>No disponible</telefono>
    </sucursal>
    <sucursal>
        <nombre>CAPULA</nombre>
        <latitud>20.219889</latitud>
        <longitud>-98.801239</longitud>
        <tipo>CE - UNIDAD DE CONSULTA EXTERNA</tipo>
        <direccion>EN LA ENTRADA DE LA LOCALIDAD</direccion>
        <telefono>No disponible</telefono>
    </sucursal>
    <sucursal>
        <nombre>CAPULA</nombre>
        <latitud>20.5086</latitud>
        <longitud>-99.138</longitud>
        <tipo>CE - UNIDAD DE CONSULTA EXTERNA</tipo>
        <direccion>DOMICILIO CONOCIDO</direccion>
        <telefono>No disponible</telefono>
    </sucursal>
    <sucursal>
        <nombre>CARBONERAS</nombre>
        <latitud>20.214853</latitud>
        <longitud>-98.696091</longitud>
        <tipo>CE - UNIDAD DE CONSULTA EXTERNA</tipo>
        <direccion>ENTRADA DE LA LOCALIDAD</direccion>
        <telefono>No disponible</telefono>
    </sucursal>
    <sucursal>
        <nombre>CARDONAL</nombre>
        <latitud>20.051189</latitud>
        <longitud>-99.228806</longitud>
        <tipo>CE - UNIDAD DE CONSULTA EXTERNA</tipo>
        <direccion>I. ALTAMIRANO</direccion>
        <telefono>No disponible</telefono>
    </sucursal>
    <sucursal>
        <nombre>CARDONAL</nombre>
        <latitud>20.61421</latitud>
        <longitud>-99.11673</longitud>
        <tipo>CE - UNIDAD DE CONSULTA EXTERNA</tipo>
        <direccion>PLAZA LIC. JES'daS ZENIL</direccion>
        <telefono>No disponible</telefono>
    </sucursal>
    <sucursal>
        <nombre>CARPINTEROS</nombre>
        <latitud>20.5868</latitud>
        <longitud>-98.5383</longitud>
        <tipo>CE - UNIDAD DE CONSULTA EXTERNA</tipo>
        <direccion>DOMICILIO CONOCIDO</direccion>
        <telefono>No disponible</telefono>
    </sucursal>
    <sucursal>
        <nombre>CASAS VIEJAS</nombre>
        <latitud>21.2658</latitud>
        <longitud>-98.9958</longitud>
        <tipo>CE - UNIDAD DE CONSULTA EXTERNA</tipo>
        <direccion>DOMICILIO CONOCIDO</direccion>
        <telefono>No disponible</telefono>
    </sucursal>
    <sucursal>
        <nombre>CAXUXI</nombre>
        <latitud>20.302488</latitud>
        <longitud>-98.993431</longitud>
        <tipo>CE - UNIDAD DE CONSULTA EXTERNA</tipo>
        <direccion>AVENIDA 16 DE JULIO ESQUINA EMILIANO ZAPATA</direccion>
        <telefono>No disponible</telefono>
    </sucursal>
    <sucursal>
        <nombre>CENTRO DE SALUD BOMANXOTHA</nombre>
        <latitud>20.514426</latitud>
        <longitud>-99.665623</longitud>
        <tipo>CE - UNIDAD DE CONSULTA EXTERNA</tipo>
        <direccion>AV. PRINCIPAL. CARRETERA LA MESILLA</direccion>
        <telefono>(1761) 5962418</telefono>
    </sucursal>
    <sucursal>
        <nombre>CENTRO DE SALUD NOR PONIENTE</nombre>
        <latitud>20.65591</latitud>
        <longitud>-98.466993</longitud>
        <tipo>CE - UNIDAD DE CONSULTA EXTERNA</tipo>
        <direccion>CIRCUITO GOBERNADORES</direccion>
        <telefono>(771) 1071007</telefono>
    </sucursal>
    <sucursal>
        <nombre>CENTRO DE SALUD RURAL DE SAN AGUST'cdN METZQUITITLAN</nombre>
        <latitud>20.532572</latitud>
        <longitud>-98.636864</longitud>
        <tipo>CE - UNIDAD DE CONSULTA EXTERNA</tipo>
        <direccion>ISABEL LA CAT'd3LICA ATR'c1S DE LA PRESIDENCIA MUNICIPAL</direccion>
        <telefono>(774) 7421202</telefono>
    </sucursal>
    <sucursal>
        <nombre>CENTRO DE SALUD RURAL HUIXM'cd</nombre>
        <latitud>20.078456</latitud>
        <longitud>-98.821106</longitud>
        <tipo>CE - UNIDAD DE CONSULTA EXTERNA</tipo>
        <direccion>CALLE 24 DE JUNIO, ESQ. CALLE INDEPENDENCIA</direccion>
        <telefono>(771) 1531448</telefono>
    </sucursal>
    <sucursal>
        <nombre>CENTRO DE SALUD SUR PONIENTE</nombre>
        <latitud>20.53757</latitud>
        <longitud>-98.463909</longitud>
        <tipo>CE - UNIDAD DE CONSULTA EXTERNA</tipo>
        <direccion>BOULEVARD SAN MIGUEL</direccion>
        <telefono>(771) 1071007</telefono>
    </sucursal>
    <sucursal>
        <nombre>CERRITOS</nombre>
        <latitud>20.536943</latitud>
        <longitud>-99.183891</longitud>
        <tipo>CE - UNIDAD DE CONSULTA EXTERNA</tipo>
        <direccion>CARRETERA IXMIQUILPAN-CARDONAL ENTRADA PRINCIPAL</direccion>
        <telefono>No disponible</telefono>
    </sucursal>
    <sucursal>
        <nombre>CERRITOS</nombre>
        <latitud>20.353085</latitud>
        <longitud>-99.012276</longitud>
        <tipo>CE - UNIDAD DE CONSULTA EXTERNA</tipo>
        <direccion>SEGUNDA MANZANA</direccion>
        <telefono>No disponible</telefono>
    </sucursal>
    <sucursal>
        <nombre>CERRO COLORADO</nombre>
        <latitud>20.406961</latitud>
        <longitud>-98.718193</longitud>
        <tipo>CE - UNIDAD DE CONSULTA EXTERNA</tipo>
        <direccion>DURANGO</direccion>
        <telefono>(774) 7457084</telefono>
    </sucursal>
    <sucursal>
        <nombre>CERRO DEL AGUILA</nombre>
        <latitud>20.887529</latitud>
        <longitud>-98.988091</longitud>
        <tipo>CE - UNIDAD DE CONSULTA EXTERNA</tipo>
        <direccion>A UN LADO DE LA PRIMARIA</direccion>
        <telefono>No disponible</telefono>
    </sucursal>
    <sucursal>
        <nombre>CERRO PRIETO</nombre>
        <latitud>20.7951</latitud>
        <longitud>-99.2064</longitud>
        <tipo>CE - UNIDAD DE CONSULTA EXTERNA</tipo>
        <direccion>DOMICILIO CONOCIDO</direccion>
        <telefono>No disponible</telefono>
    </sucursal>
    <sucursal>
        <nombre>CERRO PRIETO</nombre>
        <latitud>21.0867</latitud>
        <longitud>-99.0744</longitud>
        <tipo>CE - UNIDAD DE CONSULTA EXTERNA</tipo>
        <direccion>DOMICILIO CONOCIDO</direccion>
        <telefono>No disponible</telefono>
    </sucursal>
    <sucursal>
        <nombre>CHALAHUITE</nombre>
        <latitud>21.24</latitud>
        <longitud>-98.9436</longitud>
        <tipo>CE - UNIDAD DE CONSULTA EXTERNA</tipo>
        <direccion>DOMICILIO CONOCIDO</direccion>
        <telefono>No disponible</telefono>
    </sucursal>
    <sucursal>
        <nombre>CHALAHUIYAPA</nombre>
        <latitud>21.1503</latitud>
        <longitud>-98.3642</longitud>
        <tipo>CE - UNIDAD DE CONSULTA EXTERNA</tipo>
        <direccion>DOMICILIO CONOCIDO</direccion>
        <telefono>No disponible</telefono>
    </sucursal>
    <sucursal>
        <nombre>CHALINGO</nombre>
        <latitud>21.098888</latitud>
        <longitud>-98.220558</longitud>
        <tipo>CE - UNIDAD DE CONSULTA EXTERNA</tipo>
        <direccion>BENITO JU'c1REZ</direccion>
        <telefono>No disponible</telefono>
    </sucursal>
    <sucursal>
        <nombre>CHALMA</nombre>
        <latitud>20.875</latitud>
        <longitud>-98.691948</longitud>
        <tipo>CE - UNIDAD DE CONSULTA EXTERNA</tipo>
        <direccion>PORFIRIO DIAZ</direccion>
        <telefono>No disponible</telefono>
    </sucursal>
    <sucursal>
        <nombre>CHANTASCO</nombre>
        <latitud>21.169937</latitud>
        <longitud>-98.749313</longitud>
        <tipo>CE - UNIDAD DE CONSULTA EXTERNA</tipo>
        <direccion>CERCA DEL DEP'd3SITO DE AGUA</direccion>
        <telefono>No disponible</telefono>
    </sucursal>
    <sucursal>
        <nombre>CHAPANTONGO</nombre>
        <latitud>20.289032</latitud>
        <longitud>-99.416512</longitud>
        <tipo>CE - UNIDAD DE CONSULTA EXTERNA</tipo>
        <direccion>VALENTIN SANTIAGO</direccion>
        <telefono>(763) 7285148</telefono>
    </sucursal>
    <sucursal>
        <nombre>CHAPULHUACAN</nombre>
        <latitud>21.156859</latitud>
        <longitud>-98.903604</longitud>
        <tipo>CE - UNIDAD DE CONSULTA EXTERNA</tipo>
        <direccion>FELIPE 'c1NGELES</direccion>
        <telefono>(483) 3782119</telefono>
    </sucursal>
    <sucursal>
        <nombre>CHAPULHUACAN</nombre>
        <latitud>21.156731</latitud>
        <longitud>-98.904648</longitud>
        <tipo>CE - UNIDAD DE CONSULTA EXTERNA</tipo>
        <direccion>FRANCISCO SARABIA</direccion>
        <telefono>(483) 3782039</telefono>
    </sucursal>
    <sucursal>
        <nombre>CHIAPA</nombre>
        <latitud>20.881666</latitud>
        <longitud>-98.307777</longitud>
        <tipo>CE - UNIDAD DE CONSULTA EXTERNA</tipo>
        <direccion>ENTRADA A LA COMUNIDAD DE CHIAPA</direccion>
        <telefono>No disponible</telefono>
    </sucursal>
    <sucursal>
        <nombre>CHIATIP'c1N</nombre>
        <latitud>21.0215</latitud>
        <longitud>-98.5267</longitud>
        <tipo>CE - UNIDAD DE CONSULTA EXTERNA</tipo>
        <direccion>DOMICILIO CONOCIDO</direccion>
        <telefono>No disponible</telefono>
    </sucursal>
    <sucursal>
        <nombre>CHICAVASCO</nombre>
        <latitud>20.271244</latitud>
        <longitud>-98.946426</longitud>
        <tipo>CE - UNIDAD DE CONSULTA EXTERNA</tipo>
        <direccion>PLAZA JU'c1REZ</direccion>
        <telefono>No disponible</telefono>
    </sucursal>
    <sucursal>
        <nombre>CHICHATLA</nombre>
        <latitud>20.957689</latitud>
        <longitud>-98.628632</longitud>
        <tipo>CE - UNIDAD DE CONSULTA EXTERNA</tipo>
        <direccion>JUNTO A LA ESCUELA</direccion>
        <telefono>No disponible</telefono>
    </sucursal>
    <sucursal>
        <nombre>CHICHICAXTLA</nombre>
        <latitud>20.789015</latitud>
        <longitud>-99.06472</longitud>
        <tipo>CE - UNIDAD DE CONSULTA EXTERNA</tipo>
        <direccion>JUNTO A LA ESCUELA</direccion>
        <telefono>No disponible</telefono>
    </sucursal>
    <sucursal>
        <nombre>CHICHICAXTLE</nombre>
        <latitud>20.362768</latitud>
        <longitud>-98.361191</longitud>
        <tipo>CE - UNIDAD DE CONSULTA EXTERNA</tipo>
        <direccion>NO DISPONIBLE</direccion>
        <telefono>No disponible</telefono>
    </sucursal>
    <sucursal>
        <nombre>CHICONCOAC</nombre>
        <latitud>20.981112</latitud>
        <longitud>-98.735275</longitud>
        <tipo>CE - UNIDAD DE CONSULTA EXTERNA</tipo>
        <direccion>CERCA DE LA IGLESIA</direccion>
        <telefono>(775) 133816</telefono>
    </sucursal>
    <sucursal>
        <nombre>CHICONCUAC</nombre>
        <latitud>19.825344</latitud>
        <longitud>-98.617821</longitud>
        <tipo>CE - UNIDAD DE CONSULTA EXTERNA</tipo>
        <direccion>EMILIA AVITIA ROSELL</direccion>
        <telefono>No disponible</telefono>
    </sucursal>
    <sucursal>
        <nombre>CHILCUAUTLA</nombre>
        <latitud>20.330206</latitud>
        <longitud>-99.231575</longitud>
        <tipo>CE - UNIDAD DE CONSULTA EXTERNA</tipo>
        <direccion>5 DE FEBRERO ESQUINA GUILLERMO PRIETO</direccion>
        <telefono>(738) 3830371</telefono>
    </sucursal>
    <sucursal>
        <nombre>CHILIJAPA</nombre>
        <latitud>21.01</latitud>
        <longitud>-98.8703</longitud>
        <tipo>CE - UNIDAD DE CONSULTA EXTERNA</tipo>
        <direccion>DOMICILIO CONOCIDO</direccion>
        <telefono>No disponible</telefono>
    </sucursal>
    <sucursal>
        <nombre>CHIMALAPA</nombre>
        <latitud>20.188154</latitud>
        <longitud>-98.160004</longitud>
        <tipo>CE - UNIDAD DE CONSULTA EXTERNA</tipo>
        <direccion>BARRIO BLANCO</direccion>
        <telefono>No disponible</telefono>
    </sucursal>
    <sucursal>
        <nombre>CHIMALPA TLALAYOTE</nombre>
        <latitud>19.663334</latitud>
        <longitud>-98.512779</longitud>
        <tipo>CE - UNIDAD DE CONSULTA EXTERNA</tipo>
        <direccion>AVENIDA BENITO JU'c1REZ</direccion>
        <telefono>No disponible</telefono>
    </sucursal>
    <sucursal>
        <nombre>CHIPOCOI</nombre>
        <latitud>20.975046</latitud>
        <longitud>-98.703445</longitud>
        <tipo>CE - UNIDAD DE CONSULTA EXTERNA</tipo>
        <direccion>NO DISPONIBLE</direccion>
        <telefono>No disponible</telefono>
    </sucursal>
    <sucursal>
        <nombre>CIENEGUILLA</nombre>
        <latitud>20.71372</latitud>
        <longitud>-99.034531</longitud>
        <tipo>CE - UNIDAD DE CONSULTA EXTERNA</tipo>
        <direccion>A UN COSTADO DE LA TORTILLERIA</direccion>
        <telefono>No disponible</telefono>
    </sucursal>
    <sucursal>
        <nombre>CIUDAD SAHAGUN</nombre>
        <latitud>20.039737</latitud>
        <longitud>-98.352851</longitud>
        <tipo>CE - UNIDAD DE CONSULTA EXTERNA</tipo>
        <direccion>CARRETERA TEPEAPULCO LIENZO CHARRO</direccion>
        <telefono>(771) 71135377</telefono>
    </sucursal>
    <sucursal>
        <nombre>COACUILCO</nombre>
        <latitud>21.103</latitud>
        <longitud>-98.5857</longitud>
        <tipo>CE - UNIDAD DE CONSULTA EXTERNA</tipo>
        <direccion>DOMICILIO CONOCIDO</direccion>
        <telefono>No disponible</telefono>
    </sucursal>
    <sucursal>
        <nombre>COAMELCO</nombre>
        <latitud>20.758745</latitud>
        <longitud>-98.467247</longitud>
        <tipo>CE - UNIDAD DE CONSULTA EXTERNA</tipo>
        <direccion>A UN COSTADO DE LA ESCUELA PRIMARIA</direccion>
        <telefono>No disponible</telefono>
    </sucursal>
    <sucursal>
        <nombre>COATLILA</nombre>
        <latitud>20.686319</latitud>
        <longitud>-98.587708</longitud>
        <tipo>CE - UNIDAD DE CONSULTA EXTERNA</tipo>
        <direccion>PRINCIPAL</direccion>
        <telefono>(771) 1974646</telefono>
    </sucursal>
    <sucursal>
        <nombre>COATZONCO</nombre>
        <latitud>20.98889</latitud>
        <longitud>-98.301666</longitud>
        <tipo>CE - UNIDAD DE CONSULTA EXTERNA</tipo>
        <direccion>NO DISPONIBLE</direccion>
        <telefono>No disponible</telefono>
    </sucursal>
    <sucursal>
        <nombre>COCHISCOATITLA</nombre>
        <latitud>20.993811</latitud>
        <longitud>-98.394066</longitud>
        <tipo>CE - UNIDAD DE CONSULTA EXTERNA</tipo>
        <direccion>PRINCIPAL</direccion>
        <telefono>(789) 8960739</telefono>
    </sucursal>
    <sucursal>
        <nombre>COCHOTLA</nombre>
        <latitud>21.0078</latitud>
        <longitud>-98.4231</longitud>
        <tipo>CE - UNIDAD DE CONSULTA EXTERNA</tipo>
        <direccion>DOMICILIO CONOCIDO</direccion>
        <telefono>No disponible</telefono>
    </sucursal>
    <sucursal>
        <nombre>COL. 28 DE MAYO SANTA ROSA</nombre>
        <latitud>20.166304</latitud>
        <longitud>-98.389832</longitud>
        <tipo>CE - UNIDAD DE CONSULTA EXTERNA</tipo>
        <direccion>AGUSTIN OLVERA</direccion>
        <telefono>(775) 7541748</telefono>
    </sucursal>
    <sucursal>
        <nombre>COL. 'c1VILA CAMACHO</nombre>
        <latitud>20.074192</latitud>
        <longitud>-98.672455</longitud>
        <tipo>CE - UNIDAD DE CONSULTA EXTERNA</tipo>
        <direccion>GUADALUPE VICTORIA</direccion>
        <telefono>No disponible</telefono>
    </sucursal>
    <sucursal>
        <nombre>COL.DENDHO</nombre>
        <latitud>20.069885</latitud>
        <longitud>-99.23584</longitud>
        <tipo>CE - UNIDAD DE CONSULTA EXTERNA</tipo>
        <direccion>24 DE FEBRERO ESQUINA 1o. DE MAYO</direccion>
        <telefono>No disponible</telefono>
    </sucursal>
    <sucursal>
        <nombre>COLONIA AQUILES SERD'c1N</nombre>
        <latitud>20.129639</latitud>
        <longitud>-98.757721</longitud>
        <tipo>CE - UNIDAD DE CONSULTA EXTERNA</tipo>
        <direccion>SONORA</direccion>
        <telefono>(771) 7134909</telefono>
    </sucursal>
    <sucursal>
        <nombre>COLONIA BUENOS AIRES</nombre>
        <latitud>20.122452</latitud>
        <longitud>-98.720802</longitud>
        <tipo>CE - UNIDAD DE CONSULTA EXTERNA</tipo>
        <direccion>GUADALUPE VICTORIA</direccion>
        <telefono>No disponible</telefono>
    </sucursal>
    <sucursal>
        <nombre>COLONIA CERRO DE LA CRUZ</nombre>
        <latitud>20.145</latitud>
        <longitud>-99.2239</longitud>
        <tipo>CE - UNIDAD DE CONSULTA EXTERNA</tipo>
        <direccion>EMILIANO ZAPATA ESQUINA LUIS DONALDO COLOSIO</direccion>
        <telefono>No disponible</telefono>
    </sucursal>
    <sucursal>
        <nombre>COLONIA CUAUHT'c9MOC</nombre>
        <latitud>20.1285</latitud>
        <longitud>-98.74157</longitud>
        <tipo>CE - UNIDAD DE CONSULTA EXTERNA</tipo>
        <direccion>SOSTENES ROCHA</direccion>
        <telefono>(771) 7190227</telefono>
    </sucursal>
    <sucursal>
        <nombre>COLONIA CUAUHT'c9MOC</nombre>
        <latitud>20.140638</latitud>
        <longitud>-99.239365</longitud>
        <tipo>CE - UNIDAD DE CONSULTA EXTERNA</tipo>
        <direccion>TEODOMIRO MANZANO</direccion>
        <telefono>No disponible</telefono>
    </sucursal>
    <sucursal>
        <nombre>COLONIA CUBITOS</nombre>
        <latitud>20.111044</latitud>
        <longitud>-98.733604</longitud>
        <tipo>CE - UNIDAD DE CONSULTA EXTERNA</tipo>
        <direccion>OAXACA Y YUCATAN</direccion>
        <telefono>(771) 7137049</telefono>
    </sucursal>
    <sucursal>
        <nombre>COLONIA EL ARBOLITO</nombre>
        <latitud>20.135277</latitud>
        <longitud>-98.730179</longitud>
        <tipo>CE - UNIDAD DE CONSULTA EXTERNA</tipo>
        <direccion>REFORMA</direccion>
        <telefono>(771) 7150513</telefono>
    </sucursal>
    <sucursal>
        <nombre>COLONIA EL MONTECILLO</nombre>
        <latitud>20.037127</latitud>
        <longitud>-99.330399</longitud>
        <tipo>CE - UNIDAD DE CONSULTA EXTERNA</tipo>
        <direccion>POR EL ANTIGUO CAMPO DE FUTBOL</direccion>
        <telefono>(773) 7325070</telefono>
    </sucursal>
    <sucursal>
        <nombre>COLONIA GENERAL FELIPE 'c1NGELES</nombre>
        <latitud>20.498056</latitud>
        <longitud>-99.195274</longitud>
        <tipo>CE - UNIDAD DE CONSULTA EXTERNA</tipo>
        <direccion>AVENIDA DE LA AMISTAD</direccion>
        <telefono>No disponible</telefono>
    </sucursal>
    <sucursal>
        <nombre>COLONIA GUADALUPE EL ASTILLERO</nombre>
        <latitud>20.3296</latitud>
        <longitud>-99.5529</longitud>
        <tipo>CE - UNIDAD DE CONSULTA EXTERNA</tipo>
        <direccion>DOMICILIO CONOCIDO</direccion>
        <telefono>No disponible</telefono>
    </sucursal>
    <sucursal>
        <nombre>COLONIA ITURBE</nombre>
        <latitud>20.081223</latitud>
        <longitud>-99.320145</longitud>
        <tipo>CE - UNIDAD DE CONSULTA EXTERNA</tipo>
        <direccion>FRANCISCO VILLA</direccion>
        <telefono>(773) 7323068</telefono>
    </sucursal>
    <sucursal>
        <nombre>COLONIA LA RAZA</nombre>
        <latitud>20.106188</latitud>
        <longitud>-98.733406</longitud>
        <tipo>CE - UNIDAD DE CONSULTA EXTERNA</tipo>
        <direccion>INDEPENDENCIA</direccion>
        <telefono>No disponible</telefono>
    </sucursal>
    <sucursal>
        <nombre>COLONIA MORELOS (EL NUEVE)</nombre>
        <latitud>20.2249</latitud>
        <longitud>-99.1412</longitud>
        <tipo>CE - UNIDAD DE CONSULTA EXTERNA</tipo>
        <direccion>DOMICILIO CONOCIDO</direccion>
        <telefono>No disponible</telefono>
    </sucursal>
    <sucursal>
        <nombre>COLONIA PALMILLAS</nombre>
        <latitud>20.217777</latitud>
        <longitud>-99.198334</longitud>
        <tipo>CE - UNIDAD DE CONSULTA EXTERNA</tipo>
        <direccion>JOS'c9 MARIA MORELOS</direccion>
        <telefono>No disponible</telefono>
    </sucursal>
    <sucursal>
        <nombre>COLONIA ROJO G'd3MEZ</nombre>
        <latitud>20.120621</latitud>
        <longitud>-98.751518</longitud>
        <tipo>CE - UNIDAD DE CONSULTA EXTERNA</tipo>
        <direccion>COSECHA ESQUINA TIERRA Y LIBERTAD</direccion>
        <telefono>No disponible</telefono>
    </sucursal>
    <sucursal>
        <nombre>COLONIA TE'd1HE</nombre>
        <latitud>20.192778</latitud>
        <longitud>-99.178329</longitud>
        <tipo>CE - UNIDAD DE CONSULTA EXTERNA</tipo>
        <direccion>AVENIDA MORELOS</direccion>
        <telefono>No disponible</telefono>
    </sucursal>
    <sucursal>
        <nombre>COLONIA VERACRUZ</nombre>
        <latitud>20.256939</latitud>
        <longitud>-99.141907</longitud>
        <tipo>CE - UNIDAD DE CONSULTA EXTERNA</tipo>
        <direccion>AVENIDA 5 DE MAYO</direccion>
        <telefono>No disponible</telefono>
    </sucursal>
    <sucursal>
        <nombre>CO'd1ECITO</nombre>
        <latitud>21.041964</latitud>
        <longitud>-99.123726</longitud>
        <tipo>CE - UNIDAD DE CONSULTA EXTERNA</tipo>
        <direccion>JUNTO A LA TELESECUNDARIA</direccion>
        <telefono>(200) 1232560</telefono>
    </sucursal>
    <sucursal>
        <nombre>CONEJOS</nombre>
        <latitud>19.9734</latitud>
        <longitud>-99.2415</longitud>
        <tipo>CE - UNIDAD DE CONSULTA EXTERNA</tipo>
        <direccion>DOMICILIO CONOCIDO</direccion>
        <telefono>No disponible</telefono>
    </sucursal>
    <sucursal>
        <nombre>CONSEJO DE RECURSOS MINERALES</nombre>
        <latitud>20.090392</latitud>
        <longitud>-98.768882</longitud>
        <tipo>CE - UNIDAD DE CONSULTA EXTERNA</tipo>
        <direccion>AVENIDA REAL DEL MONTE</direccion>
        <telefono>(771) 7113178</telefono>
    </sucursal>
    <sucursal>
        <nombre>COYOCALA</nombre>
        <latitud>20.9525</latitud>
        <longitud>-98.8955</longitud>
        <tipo>CE - UNIDAD DE CONSULTA EXTERNA</tipo>
        <direccion>DOMICILIO CONOCIDO</direccion>
        <telefono>No disponible</telefono>
    </sucursal>
    <sucursal>
        <nombre>COYULA</nombre>
        <latitud>20.926468</latitud>
        <longitud>-98.48214</longitud>
        <tipo>CE - UNIDAD DE CONSULTA EXTERNA</tipo>
        <direccion>CERCA DEL ARROYO</direccion>
        <telefono>No disponible</telefono>
    </sucursal>
    <sucursal>
        <nombre>CRUZ ROJA DELEGACI'd3N PACHUCA - SUR</nombre>
        <latitud>20.058072</latitud>
        <longitud>-98.786946</longitud>
        <tipo>HO - UNIDAD DE HOSPITALIZACI'd3N</tipo>
        <direccion>CARRETERA. M'c9XICO-ACTOPAN M-38</direccion>
        <telefono>(771) 7107085</telefono>
    </sucursal>
    <sucursal>
        <nombre>CRUZ ROJA MEXICANA</nombre>
        <latitud>20.118537</latitud>
        <longitud>-98.729531</longitud>
        <tipo>HO - UNIDAD DE HOSPITALIZACI'd3N</tipo>
        <direccion>MANUEL GEA GONZ'c1LEZ</direccion>
        <telefono>(771) 7143253</telefono>
    </sucursal>
    <sucursal>
        <nombre>CRUZ ROJA MEXICANA TULANCINGO</nombre>
        <latitud>20.1583</latitud>
        <longitud>-98.2056</longitud>
        <tipo>HO - UNIDAD DE HOSPITALIZACI'd3N</tipo>
        <direccion>LUIS PONCE NORTE</direccion>
        <telefono>(775) 7530412</telefono>
    </sucursal>
    <sucursal>
        <nombre>CRUZHICA</nombre>
        <latitud>20.8708</latitud>
        <longitud>-98.2811</longitud>
        <tipo>CE - UNIDAD DE CONSULTA EXTERNA</tipo>
        <direccion>DOMICILIO CONOCIDO</direccion>
        <telefono>No disponible</telefono>
    </sucursal>
    <sucursal>
        <nombre>CS SAN LORENZO ACHIOTEPEC</nombre>
        <latitud>20.598056</latitud>
        <longitud>-98.068611</longitud>
        <tipo>CE - UNIDAD DE CONSULTA EXTERNA</tipo>
        <direccion>CARRETERA HUEHUETLA-SAN LORENZO ACHIOTEPEC</direccion>
        <telefono>No disponible</telefono>
    </sucursal>
    <sucursal>
        <nombre>CSR BARRIO DENDHO</nombre>
        <latitud>20.0595</latitud>
        <longitud>-99.230202</longitud>
        <tipo>CE - UNIDAD DE CONSULTA EXTERNA</tipo>
        <direccion>AVENIDA FELIPE ANGELES ESQUINA AGUST'cdN DE ITURBIDE</direccion>
        <telefono>No disponible</telefono>
    </sucursal>
    <sucursal>
        <nombre>CUAPAXTITLA</nombre>
        <latitud>21.131945</latitud>
        <longitud>-98.552223</longitud>
        <tipo>CE - UNIDAD DE CONSULTA EXTERNA</tipo>
        <direccion>NO DISPONIBLE</direccion>
        <telefono>No disponible</telefono>
    </sucursal>
    <sucursal>
        <nombre>CUATLIMAX</nombre>
        <latitud>21.0979</latitud>
        <longitud>-98.6629</longitud>
        <tipo>CE - UNIDAD DE CONSULTA EXTERNA</tipo>
        <direccion>DOMICILIO CONOCIDO</direccion>
        <telefono>No disponible</telefono>
    </sucursal>
    <sucursal>
        <nombre>CUATOLOL</nombre>
        <latitud>21.1197</latitud>
        <longitud>-98.826</longitud>
        <tipo>CE - UNIDAD DE CONSULTA EXTERNA</tipo>
        <direccion>DOMICILIO CONOCIDO</direccion>
        <telefono>No disponible</telefono>
    </sucursal>
    <sucursal>
        <nombre>CUAUTEPEC DE HINOJOSA</nombre>
        <latitud>20.037401</latitud>
        <longitud>-98.311661</longitud>
        <tipo>CE - UNIDAD DE CONSULTA EXTERNA</tipo>
        <direccion>HIDALGO</direccion>
        <telefono>(775) 7531210</telefono>
    </sucursal>
    <sucursal>
        <nombre>CUAZAHUATL</nombre>
        <latitud>21.014723</latitud>
        <longitud>-98.886948</longitud>
        <tipo>CE - UNIDAD DE CONSULTA EXTERNA</tipo>
        <direccion>JUNTO A LA CONASUPO</direccion>
        <telefono>No disponible</telefono>
    </sucursal>
    <sucursal>
        <nombre>CUESTA COLORADA</nombre>
        <latitud>21.0272</latitud>
        <longitud>-99.1157</longitud>
        <tipo>CE - UNIDAD DE CONSULTA EXTERNA</tipo>
        <direccion>DOMICILIO CONOCIDO</direccion>
        <telefono>No disponible</telefono>
    </sucursal>
    <sucursal>
        <nombre>CUESTA COLORADA</nombre>
        <latitud>20.697781</latitud>
        <longitud>-99.192482</longitud>
        <tipo>CE - UNIDAD DE CONSULTA EXTERNA</tipo>
        <direccion>CAMINO A TEXCADHO</direccion>
        <telefono>(200) 1252339</telefono>
    </sucursal>
    <sucursal>
        <nombre>CUXHUACAN</nombre>
        <latitud>20.9716</latitud>
        <longitud>-98.818</longitud>
        <tipo>CE - UNIDAD DE CONSULTA EXTERNA</tipo>
        <direccion>DOMICILIO CONOCIDO</direccion>
        <telefono>No disponible</telefono>
    </sucursal>
    <sucursal>
        <nombre>DAJIEDHI</nombre>
        <latitud>20.312222</latitud>
        <longitud>-98.940277</longitud>
        <tipo>CE - UNIDAD DE CONSULTA EXTERNA</tipo>
        <direccion>NO DISPONIBLE</direccion>
        <telefono>No disponible</telefono>
    </sucursal>
    <sucursal>
        <nombre>DANGHU</nombre>
        <latitud>20.506111</latitud>
        <longitud>-99.347504</longitud>
        <tipo>CE - UNIDAD DE CONSULTA EXTERNA</tipo>
        <direccion>A UN LADO DEL JARD'cdN DE NI'd1OS</direccion>
        <telefono>No disponible</telefono>
    </sucursal>
    <sucursal>
        <nombre>DANTZIBOJAY</nombre>
        <latitud>20.439445</latitud>
        <longitud>-99.588608</longitud>
        <tipo>CE - UNIDAD DE CONSULTA EXTERNA</tipo>
        <direccion>JUNTO A ESCUELA PRIMARIA</direccion>
        <telefono>No disponible</telefono>
    </sucursal>
    <sucursal>
        <nombre>DA'd1U</nombre>
        <latitud>20.2055</latitud>
        <longitud>-99.7043</longitud>
        <tipo>CE - UNIDAD DE CONSULTA EXTERNA</tipo>
        <direccion>DOMICILIO CONOCIDO</direccion>
        <telefono>No disponible</telefono>
    </sucursal>
    <sucursal>
        <nombre>DEMACU</nombre>
        <latitud>20.3053</latitud>
        <longitud>-99.0291</longitud>
        <tipo>CE - UNIDAD DE CONSULTA EXTERNA</tipo>
        <direccion>DOMICILIO CONOCIDO</direccion>
        <telefono>No disponible</telefono>
    </sucursal>
    <sucursal>
        <nombre>DENGANTZHA</nombre>
        <latitud>20.271666</latitud>
        <longitud>-99.121941</longitud>
        <tipo>CE - UNIDAD DE CONSULTA EXTERNA</tipo>
        <direccion>AVENIDA DEL TRABAJO</direccion>
        <telefono>No disponible</telefono>
    </sucursal>
    <sucursal>
        <nombre>DEXTHI SAN JUANICO</nombre>
        <latitud>20.569054</latitud>
        <longitud>-99.23597</longitud>
        <tipo>CE - UNIDAD DE CONSULTA EXTERNA</tipo>
        <direccion>INSTALACIONES D.I.F.</direccion>
        <telefono>No disponible</telefono>
    </sucursal>
    <sucursal>
        <nombre>DEXTHO DE VICTORIA</nombre>
        <latitud>20.325205</latitud>
        <longitud>-99.023781</longitud>
        <tipo>CE - UNIDAD DE CONSULTA EXTERNA</tipo>
        <direccion>CARRETERA M'c9XICO-LAREDO</direccion>
        <telefono>No disponible</telefono>
    </sucursal>
    <sucursal>
        <nombre>DIOS PADRE</nombre>
        <latitud>20.465017</latitud>
        <longitud>-99.200737</longitud>
        <tipo>CE - UNIDAD DE CONSULTA EXTERNA</tipo>
        <direccion>FRENTE AL PANTE'd3N</direccion>
        <telefono>No disponible</telefono>
    </sucursal>
    <sucursal>
        <nombre>DOS CARLOS PUEBLO NUEVO</nombre>
        <latitud>20.114948</latitud>
        <longitud>-98.703789</longitud>
        <tipo>CE - UNIDAD DE CONSULTA EXTERNA</tipo>
        <direccion>SIM'd3N BOLIVAR</direccion>
        <telefono>(771) 7190079</telefono>
    </sucursal>
    <sucursal>
        <nombre>DOXEY</nombre>
        <latitud>20.087086</latitud>
        <longitud>-99.243187</longitud>
        <tipo>CE - UNIDAD DE CONSULTA EXTERNA</tipo>
        <direccion>AVENIDA JU'c1REZ</direccion>
        <telefono>No disponible</telefono>
    </sucursal>
    <sucursal>
        <nombre>DURANGO</nombre>
        <latitud>20.8947</latitud>
        <longitud>-99.23</longitud>
        <tipo>CE - UNIDAD DE CONSULTA EXTERNA</tipo>
        <direccion>DOMICILIO CONOCIDO</direccion>
        <telefono>No disponible</telefono>
    </sucursal>
    <sucursal>
        <nombre>EJIDO DE PALIZAR</nombre>
        <latitud>20.346628</latitud>
        <longitud>-98.414101</longitud>
        <tipo>CE - UNIDAD DE CONSULTA EXTERNA</tipo>
        <direccion>CARRETERA AGUA BLANCA-EJIDO PALIZAR</direccion>
        <telefono>No disponible</telefono>
    </sucursal>
    <sucursal>
        <nombre>EJIDO EL PARA'cdSO</nombre>
        <latitud>20.08375</latitud>
        <longitud>-98.345291</longitud>
        <tipo>CE - UNIDAD DE CONSULTA EXTERNA</tipo>
        <direccion>EMILIO BARRANCO PARDO</direccion>
        <telefono>No disponible</telefono>
    </sucursal>
    <sucursal>
        <nombre>EJIDO MILPA VIEJA</nombre>
        <latitud>20.3173</latitud>
        <longitud>-98.3491</longitud>
        <tipo>CE - UNIDAD DE CONSULTA EXTERNA</tipo>
        <direccion>DOMICILIO CONOCIDO</direccion>
        <telefono>No disponible</telefono>
    </sucursal>
    <sucursal>
        <nombre>EL ALBERTO</nombre>
        <latitud>20.412703</latitud>
        <longitud>-99.217865</longitud>
        <tipo>CE - UNIDAD DE CONSULTA EXTERNA</tipo>
        <direccion>A UN COSTADO DEL JARD'cdN DE NI'd1OS</direccion>
        <telefono>No disponible</telefono>
    </sucursal>
    <sucursal>
        <nombre>EL ARENAL</nombre>
        <latitud>20.910042</latitud>
        <longitud>-98.387276</longitud>
        <tipo>CE - UNIDAD DE CONSULTA EXTERNA</tipo>
        <direccion>PRINCIPAL</direccion>
        <telefono>(555) 1503105</telefono>
    </sucursal>
    <sucursal>
        <nombre>EL BINGU</nombre>
        <latitud>20.592501</latitud>
        <longitud>-99.141663</longitud>
        <tipo>CE - UNIDAD DE CONSULTA EXTERNA</tipo>
        <direccion>A UN COSTADO DE ESCUELA PRIMARIA</direccion>
        <telefono>(759) 7272306</telefono>
    </sucursal>
    <sucursal>
        <nombre>EL BOCUA</nombre>
        <latitud>20.722221</latitud>
        <longitud>-99.165558</longitud>
        <tipo>CE - UNIDAD DE CONSULTA EXTERNA</tipo>
        <direccion>A UN LADO ESCUELA PRIMARIA</direccion>
        <telefono>(200) 1232788</telefono>
    </sucursal>
    <sucursal>
        <nombre>EL BOPO</nombre>
        <latitud>20.360811</latitud>
        <longitud>-98.211479</longitud>
        <tipo>CE - UNIDAD DE CONSULTA EXTERNA</tipo>
        <direccion>A UN LADO DE LA DELEGACI'd3N MUNICIPAL</direccion>
        <telefono>No disponible</telefono>
    </sucursal>
    <sucursal>
        <nombre>EL BRASILAR</nombre>
        <latitud>21.328</latitud>
        <longitud>-98.6256</longitud>
        <tipo>CE - UNIDAD DE CONSULTA EXTERNA</tipo>
        <direccion>DOMICILIO CONOCIDO</direccion>
        <telefono>No disponible</telefono>
    </sucursal>
    <sucursal>
        <nombre>EL BUENA</nombre>
        <latitud>20.632778</latitud>
        <longitud>-99.143059</longitud>
        <tipo>CE - UNIDAD DE CONSULTA EXTERNA</tipo>
        <direccion>JUNTO A LA CANCHA DE FUTBOL</direccion>
        <telefono>No disponible</telefono>
    </sucursal>
    <sucursal>
        <nombre>EL CAPULIN</nombre>
        <latitud>20.008179</latitud>
        <longitud>-98.275574</longitud>
        <tipo>CE - UNIDAD DE CONSULTA EXTERNA</tipo>
        <direccion>EL CAPULIN POR LA CANCHA BASQUETBOL</direccion>
        <telefono>No disponible</telefono>
    </sucursal>
    <sucursal>
        <nombre>EL CARMEN</nombre>
        <latitud>20.3045</latitud>
        <longitud>-99.826</longitud>
        <tipo>CE - UNIDAD DE CONSULTA EXTERNA</tipo>
        <direccion>DOMICILIO CONOCIDO</direccion>
        <telefono>No disponible</telefono>
    </sucursal>
    <sucursal>
        <nombre>EL CARRIZAL</nombre>
        <latitud>20.498302</latitud>
        <longitud>-98.694534</longitud>
        <tipo>CE - UNIDAD DE CONSULTA EXTERNA</tipo>
        <direccion>FRENTE A LA ESCUELA Y LA IGLESIA</direccion>
        <telefono>No disponible</telefono>
    </sucursal>
    <sucursal>
        <nombre>EL CARRIZAL</nombre>
        <latitud>21.226509</latitud>
        <longitud>-98.544479</longitud>
        <tipo>CE - UNIDAD DE CONSULTA EXTERNA</tipo>
        <direccion>PRINCIPAL FRENTE A LA CONASUPO</direccion>
        <telefono>(771) 1495363</telefono>
    </sucursal>
    <sucursal>
        <nombre>EL CERROTE</nombre>
        <latitud>20.657801</latitud>
        <longitud>-99.284889</longitud>
        <tipo>CE - UNIDAD DE CONSULTA EXTERNA</tipo>
        <direccion>ARRIBA DE LA ESCUELA PRIMARIA</direccion>
        <telefono>(759) 7282051</telefono>
    </sucursal>
    <sucursal>
        <nombre>EL CHOTE</nombre>
        <latitud>21.153</latitud>
        <longitud>-98.5077</longitud>
        <tipo>CE - UNIDAD DE CONSULTA EXTERNA</tipo>
        <direccion>DOMICILIO CONOCIDO</direccion>
        <telefono>No disponible</telefono>
    </sucursal>
    <sucursal>
        <nombre>EL CID</nombre>
        <latitud>19.867237</latitud>
        <longitud>-98.926949</longitud>
        <tipo>CE - UNIDAD DE CONSULTA EXTERNA</tipo>
        <direccion>PALMERA</direccion>
        <telefono>No disponible</telefono>
    </sucursal>
    <sucursal>
        <nombre>EL COYOL</nombre>
        <latitud>21.0652</latitud>
        <longitud>-98.9961</longitud>
        <tipo>CE - UNIDAD DE CONSULTA EXTERNA</tipo>
        <direccion>DOMICILIO CONOCIDO</direccion>
        <telefono>No disponible</telefono>
    </sucursal>
    <sucursal>
        <nombre>EL DADHO</nombre>
        <latitud>20.406111</latitud>
        <longitud>-99.236115</longitud>
        <tipo>CE - UNIDAD DE CONSULTA EXTERNA</tipo>
        <direccion>JUNTO A LA DELEGACI'd3N</direccion>
        <telefono>No disponible</telefono>
    </sucursal>
    <sucursal>
        <nombre>EL DECA</nombre>
        <latitud>20.612183</latitud>
        <longitud>-99.141434</longitud>
        <tipo>CE - UNIDAD DE CONSULTA EXTERNA</tipo>
        <direccion>JUNTO A LA BIBLIOTECA LOCAL</direccion>
        <telefono>No disponible</telefono>
    </sucursal>
    <sucursal>
        <nombre>EL DEFAY</nombre>
        <latitud>20.642498</latitud>
        <longitud>-99.189957</longitud>
        <tipo>CE - UNIDAD DE CONSULTA EXTERNA</tipo>
        <direccion>A UN COSTADO DE LA ESCUELA PRIMARIA</direccion>
        <telefono>No disponible</telefono>
    </sucursal>
    <sucursal>
        <nombre>EL DEQUE'd1A</nombre>
        <latitud>20.3521</latitud>
        <longitud>-98.2303</longitud>
        <tipo>CE - UNIDAD DE CONSULTA EXTERNA</tipo>
        <direccion>DOMICILIO CONOCIDO</direccion>
        <telefono>No disponible</telefono>
    </sucursal>
    <sucursal>
        <nombre>EL ENCINO</nombre>
        <latitud>20.44257</latitud>
        <longitud>-98.917801</longitud>
        <tipo>CE - UNIDAD DE CONSULTA EXTERNA</tipo>
        <direccion>NO DISPONIBLE</direccion>
        <telefono>No disponible</telefono>
    </sucursal>
    <sucursal>
        <nombre>EL ESPIRITU</nombre>
        <latitud>20.58659</latitud>
        <longitud>-99.166817</longitud>
        <tipo>CE - UNIDAD DE CONSULTA EXTERNA</tipo>
        <direccion>A UN COSTADO DE LA PRIMARIA</direccion>
        <telefono>(759) 7281013</telefono>
    </sucursal>
    <sucursal>
        <nombre>EL IXTLE</nombre>
        <latitud>21.0458</latitud>
        <longitud>-98.1594</longitud>
        <tipo>CE - UNIDAD DE CONSULTA EXTERNA</tipo>
        <direccion>DOMICILIO CONOCIDO</direccion>
        <telefono>No disponible</telefono>
    </sucursal>
    <sucursal>
        <nombre>EL JIADI</nombre>
        <latitud>20.245947</latitud>
        <longitud>-98.92865</longitud>
        <tipo>CE - UNIDAD DE CONSULTA EXTERNA</tipo>
        <direccion>FRENTE A LA CANCHA DE FUT-BOL</direccion>
        <telefono>No disponible</telefono>
    </sucursal>
    <sucursal>
        <nombre>EL LLANO PRIMERA SECCI'd3N</nombre>
        <latitud>20.063322</latitud>
        <longitud>-99.318398</longitud>
        <tipo>CE - UNIDAD DE CONSULTA EXTERNA</tipo>
        <direccion>AVENIDA LIBERACI'd3N NACIONAL</direccion>
        <telefono>(773) 7307539</telefono>
    </sucursal>
    <sucursal>
        <nombre>EL NARANJO</nombre>
        <latitud>21.0213</latitud>
        <longitud>-99.0034</longitud>
        <tipo>CE - UNIDAD DE CONSULTA EXTERNA</tipo>
        <direccion>DOMICILIO CONOCIDO</direccion>
        <telefono>No disponible</telefono>
    </sucursal>
    <sucursal>
        <nombre>EL NITH</nombre>
        <latitud>20.488157</latitud>
        <longitud>-99.191841</longitud>
        <tipo>CE - UNIDAD DE CONSULTA EXTERNA</tipo>
        <direccion>FRAY BARTOLOME DE LAS CASAS</direccion>
        <telefono>No disponible</telefono>
    </sucursal>
    <sucursal>
        <nombre>EL PARA'cdSO</nombre>
        <latitud>20.43285</latitud>
        <longitud>-98.082848</longitud>
        <tipo>CE - UNIDAD DE CONSULTA EXTERNA</tipo>
        <direccion>CARRETERA HUEHUETLA</direccion>
        <telefono>No disponible</telefono>
    </sucursal>
    <sucursal>
        <nombre>EL PEDREGAL DE SAN JOS'c9</nombre>
        <latitud>20.053326</latitud>
        <longitud>-98.335541</longitud>
        <tipo>CE - UNIDAD DE CONSULTA EXTERNA</tipo>
        <direccion>OLMOS</direccion>
        <telefono>No disponible</telefono>
    </sucursal>
    <sucursal>
        <nombre>EL PEDREGAL DE SAN JUAN</nombre>
        <latitud>20.3957</latitud>
        <longitud>-98.6279</longitud>
        <tipo>CE - UNIDAD DE CONSULTA EXTERNA</tipo>
        <direccion>DOMICILIO CONOCIDO</direccion>
        <telefono>No disponible</telefono>
    </sucursal>
    <sucursal>
        <nombre>EL PEDREGAL DE ZARAGOZA</nombre>
        <latitud>20.643391</latitud>
        <longitud>-98.80925</longitud>
        <tipo>CE - UNIDAD DE CONSULTA EXTERNA</tipo>
        <direccion>POR LA PARADA ENTRADA PRINCIPAL</direccion>
        <telefono>No disponible</telefono>
    </sucursal>
    <sucursal>
        <nombre>EL PIRU TEPOZOTLAN EL PIRU</nombre>
        <latitud>20.526659</latitud>
        <longitud>-98.78582</longitud>
        <tipo>CE - UNIDAD DE CONSULTA EXTERNA</tipo>
        <direccion>FRENTE A LA IGLESIA</direccion>
        <telefono>No disponible</telefono>
    </sucursal>
    <sucursal>
        <nombre>EL PROGRESO</nombre>
        <latitud>21.0497</latitud>
        <longitud>-98.2501</longitud>
        <tipo>CE - UNIDAD DE CONSULTA EXTERNA</tipo>
        <direccion>DOMICILIO CONOCIDO</direccion>
        <telefono>No disponible</telefono>
    </sucursal>
    <sucursal>
        <nombre>EL PUERTO L'c1ZARO C'c1RDENAS</nombre>
        <latitud>20.220556</latitud>
        <longitud>-99.020836</longitud>
        <tipo>CE - UNIDAD DE CONSULTA EXTERNA</tipo>
        <direccion>BAHIA DE GUYMAS</direccion>
        <telefono>No disponible</telefono>
    </sucursal>
    <sucursal>
        <nombre>EL RAYO</nombre>
        <latitud>21.234</latitud>
        <longitud>-99.0203</longitud>
        <tipo>CE - UNIDAD DE CONSULTA EXTERNA</tipo>
        <direccion>DOMICILIO CONOCIDO</direccion>
        <telefono>No disponible</telefono>
    </sucursal>
    <sucursal>
        <nombre>EL REFUGIO</nombre>
        <latitud>20.003033</latitud>
        <longitud>-99.19072</longitud>
        <tipo>CE - UNIDAD DE CONSULTA EXTERNA</tipo>
        <direccion>MORELOS</direccion>
        <telefono>No disponible</telefono>
    </sucursal>
    <sucursal>
        <nombre>EL ROSAR'edO</nombre>
        <latitud>20.242201</latitud>
        <longitud>-99.024002</longitud>
        <tipo>CE - UNIDAD DE CONSULTA EXTERNA</tipo>
        <direccion>AVENIDA ADOLFO L'd3PEZ MATEOS</direccion>
        <telefono>No disponible</telefono>
    </sucursal>
    <sucursal>
        <nombre>EL SALTO</nombre>
        <latitud>20.528475</latitud>
        <longitud>-99.489601</longitud>
        <tipo>CE - UNIDAD DE CONSULTA EXTERNA</tipo>
        <direccion>NO DISPONIBLE</direccion>
        <telefono>No disponible</telefono>
    </sucursal>
    <sucursal>
        <nombre>EL SAUCILLO</nombre>
        <latitud>20.098656</latitud>
        <longitud>-98.693787</longitud>
        <tipo>CE - UNIDAD DE CONSULTA EXTERNA</tipo>
        <direccion>PLAZA 1o. DE MAYO</direccion>
        <telefono>(771) 7190220</telefono>
    </sucursal>
    <sucursal>
        <nombre>EL SAUZ JUXMAYE</nombre>
        <latitud>20.587185</latitud>
        <longitud>-99.08474</longitud>
        <tipo>CE - UNIDAD DE CONSULTA EXTERNA</tipo>
        <direccion>A UN COSTADO DE LA ESCUELA PRIMARIA</direccion>
        <telefono>No disponible</telefono>
    </sucursal>
    <sucursal>
        <nombre>EL SUSTO</nombre>
        <latitud>20.0583</latitud>
        <longitud>-98.4967</longitud>
        <tipo>CE - UNIDAD DE CONSULTA EXTERNA</tipo>
        <direccion>DOMICILIO CONOCIDO</direccion>
        <telefono>No disponible</telefono>
    </sucursal>
    <sucursal>
        <nombre>EL TABLON</nombre>
        <latitud>20.419167</latitud>
        <longitud>-99.187775</longitud>
        <tipo>CE - UNIDAD DE CONSULTA EXTERNA</tipo>
        <direccion>A UN COSTADO DEL JARD'cdN DE NI'd1OS</direccion>
        <telefono>No disponible</telefono>
    </sucursal>
    <sucursal>
        <nombre>EL TEPHE</nombre>
        <latitud>20.440445</latitud>
        <longitud>-99.167358</longitud>
        <tipo>CE - UNIDAD DE CONSULTA EXTERNA</tipo>
        <direccion>CARRETERA M'c9XICO-LAREDO</direccion>
        <telefono>No disponible</telefono>
    </sucursal>
    <sucursal>
        <nombre>EL TEPOZAN</nombre>
        <latitud>19.809168</latitud>
        <longitud>-98.264168</longitud>
        <tipo>CE - UNIDAD DE CONSULTA EXTERNA</tipo>
        <direccion>GUILLERMO PRIETO</direccion>
        <telefono>(775) 7539377</telefono>
    </sucursal>
    <sucursal>
        <nombre>EL TEZOYO</nombre>
        <latitud>19.8406</latitud>
        <longitud>-98.3144</longitud>
        <tipo>CE - UNIDAD DE CONSULTA EXTERNA</tipo>
        <direccion>DOMICILIO CONOCIDO</direccion>
        <telefono>No disponible</telefono>
    </sucursal>
    <sucursal>
        <nombre>EL TIXQUI</nombre>
        <latitud>20.709929</latitud>
        <longitud>-99.109024</longitud>
        <tipo>CE - UNIDAD DE CONSULTA EXTERNA</tipo>
        <direccion>FRENTE AL ALBERGUE</direccion>
        <telefono>No disponible</telefono>
    </sucursal>
    <sucursal>
        <nombre>EL VARAL</nombre>
        <latitud>20.0126</latitud>
        <longitud>-98.525</longitud>
        <tipo>CE - UNIDAD DE CONSULTA EXTERNA</tipo>
        <direccion>DOMICILIO CONOCIDO</direccion>
        <telefono>No disponible</telefono>
    </sucursal>
    <sucursal>
        <nombre>ELOXOCHITLAN</nombre>
        <latitud>20.744347</latitud>
        <longitud>-98.811188</longitud>
        <tipo>CE - UNIDAD DE CONSULTA EXTERNA</tipo>
        <direccion>5 DE FEBRERO</direccion>
        <telefono>(774) 7450435</telefono>
    </sucursal>
    <sucursal>
        <nombre>EMILIANO ZAPATA</nombre>
        <latitud>19.658895</latitud>
        <longitud>-98.547607</longitud>
        <tipo>CE - UNIDAD DE CONSULTA EXTERNA</tipo>
        <direccion>CORREGIDORA ESQUINA HIDALGO</direccion>
        <telefono>(748) 9150355</telefono>
    </sucursal>
    <sucursal>
        <nombre>EMILIO HERN'c1NDEZ LA FLORIDA</nombre>
        <latitud>20.5138</latitud>
        <longitud>-99.0005</longitud>
        <tipo>CE - UNIDAD DE CONSULTA EXTERNA</tipo>
        <direccion>DOMICILIO CONOCIDO</direccion>
        <telefono>No disponible</telefono>
    </sucursal>
    <sucursal>
        <nombre>ENCINILLOS</nombre>
        <latitud>20.1971</latitud>
        <longitud>-98.4324</longitud>
        <tipo>CE - UNIDAD DE CONSULTA EXTERNA</tipo>
        <direccion>DOMICILIO CONOCIDO</direccion>
        <telefono>No disponible</telefono>
    </sucursal>
    <sucursal>
        <nombre>EPAZOYUCAN</nombre>
        <latitud>20.018063</latitud>
        <longitud>-98.636795</longitud>
        <tipo>CE - UNIDAD DE CONSULTA EXTERNA</tipo>
        <direccion>AVENIDA HIDALGO</direccion>
        <telefono>(771) 7925009</telefono>
    </sucursal>
    <sucursal>
        <nombre>ESTACI'd3N DE APULCO</nombre>
        <latitud>20.2807</latitud>
        <longitud>-98.347</longitud>
        <tipo>CE - UNIDAD DE CONSULTA EXTERNA</tipo>
        <direccion>DOMICILIO CONOCIDO</direccion>
        <telefono>No disponible</telefono>
    </sucursal>
    <sucursal>
        <nombre>ESTANZUELA</nombre>
        <latitud>20.17893</latitud>
        <longitud>-98.756424</longitud>
        <tipo>CE - UNIDAD DE CONSULTA EXTERNA</tipo>
        <direccion>NO DISPONIBLE</direccion>
        <telefono>No disponible</telefono>
    </sucursal>
    <sucursal>
        <nombre>FONTEZUELAS</nombre>
        <latitud>20.4885</latitud>
        <longitud>-98.8732</longitud>
        <tipo>CE - UNIDAD DE CONSULTA EXTERNA</tipo>
        <direccion>DOMICILIO CONOCIDO</direccion>
        <telefono>No disponible</telefono>
    </sucursal>
    <sucursal>
        <nombre>FRANCISCO I MADERO GUADALUPE</nombre>
        <latitud>20.72834</latitud>
        <longitud>-99.31469</longitud>
        <tipo>CE - UNIDAD DE CONSULTA EXTERNA</tipo>
        <direccion>ARRIBA DEL KINDER</direccion>
        <telefono>(759) 7233712</telefono>
    </sucursal>
    <sucursal>
        <nombre>FRANCISCO I. MADERO</nombre>
        <latitud>19.9008</latitud>
        <longitud>-98.4783</longitud>
        <tipo>CE - UNIDAD DE CONSULTA EXTERNA</tipo>
        <direccion>DOMICILIO CONOCIDO</direccion>
        <telefono>No disponible</telefono>
    </sucursal>
    <sucursal>
        <nombre>GANDHO</nombre>
        <latitud>20.5461</latitud>
        <longitud>-99.6867</longitud>
        <tipo>CE - UNIDAD DE CONSULTA EXTERNA</tipo>
        <direccion>DOMICILIO CONOCIDO</direccion>
        <telefono>No disponible</telefono>
    </sucursal>
    <sucursal>
        <nombre>GARGANTILLA</nombre>
        <latitud>21.264889</latitud>
        <longitud>-98.95816</longitud>
        <tipo>CE - UNIDAD DE CONSULTA EXTERNA</tipo>
        <direccion>FRENTE AL TELEFONO ADELANTE DEL POZO</direccion>
        <telefono>No disponible</telefono>
    </sucursal>
    <sucursal>
        <nombre>GENERAL FELIPE 'c1NGELES LOS 'c1NGELES</nombre>
        <latitud>19.953835</latitud>
        <longitud>-98.921005</longitud>
        <tipo>CE - UNIDAD DE CONSULTA EXTERNA</tipo>
        <direccion>MINA</direccion>
        <telefono>No disponible</telefono>
    </sucursal>
    <sucursal>
        <nombre>GENERAL PEDRO MAR'cdA ANAYA</nombre>
        <latitud>20.155334</latitud>
        <longitud>-99.348373</longitud>
        <tipo>CE - UNIDAD DE CONSULTA EXTERNA</tipo>
        <direccion>PLAZA 18 DE MARZO</direccion>
        <telefono>No disponible</telefono>
    </sucursal>
    <sucursal>
        <nombre>GUADALUPE</nombre>
        <latitud>20.09017452</latitud>
        <longitud>-98.75726262</longitud>
        <tipo>CE - UNIDAD DE CONSULTA EXTERNA</tipo>
        <direccion>PRINCIPAL</direccion>
        <telefono>No disponible</telefono>
    </sucursal>
    <sucursal>
        <nombre>GUADALUPE V'cdCTORIA</nombre>
        <latitud>20.0326</latitud>
        <longitud>-98.265</longitud>
        <tipo>CE - UNIDAD DE CONSULTA EXTERNA</tipo>
        <direccion>DOMICILIO CONOCIDO</direccion>
        <telefono>No disponible</telefono>
    </sucursal>
    <sucursal>
        <nombre>GUAYABOS</nombre>
        <latitud>21.274313</latitud>
        <longitud>-99.029068</longitud>
        <tipo>CE - UNIDAD DE CONSULTA EXTERNA</tipo>
        <direccion>FRENTE A LA ESCUELA PRIMARIA GUAYABOS</direccion>
        <telefono>No disponible</telefono>
    </sucursal>
    <sucursal>
        <nombre>GUERRERO</nombre>
        <latitud>20.366838</latitud>
        <longitud>-99.007545</longitud>
        <tipo>CE - UNIDAD DE CONSULTA EXTERNA</tipo>
        <direccion>PRINCIPAL</direccion>
        <telefono>No disponible</telefono>
    </sucursal>
    <sucursal>
        <nombre>GUNDHO</nombre>
        <latitud>20.6886</latitud>
        <longitud>-99.1953</longitud>
        <tipo>CE - UNIDAD DE CONSULTA EXTERNA</tipo>
        <direccion>DOMICILIO CONOCIDO</direccion>
        <telefono>No disponible</telefono>
    </sucursal>
    <sucursal>
        <nombre>HERMOSILLO MONTE NOBLE</nombre>
        <latitud>20.4128</latitud>
        <longitud>-98.9478</longitud>
        <tipo>CE - UNIDAD DE CONSULTA EXTERNA</tipo>
        <direccion>DOMICILIO CONOCIDO</direccion>
        <telefono>No disponible</telefono>
    </sucursal>
    <sucursal>
        <nombre>H'c9ROES CARRANZA</nombre>
        <latitud>20.096933</latitud>
        <longitud>-99.47683</longitud>
        <tipo>CE - UNIDAD DE CONSULTA EXTERNA</tipo>
        <direccion>AGRARISMO</direccion>
        <telefono>(773) 7310256</telefono>
    </sucursal>
    <sucursal>
        <nombre>HGS 33 TIZAYUCA</nombre>
        <latitud>19.8228</latitud>
        <longitud>-98.9799</longitud>
        <tipo>HO - UNIDAD DE HOSPITALIZACI'd3N</tipo>
        <direccion>UNIDAD HABITACIONAL TIZAYUCA</direccion>
        <telefono>(779) 7960629</telefono>
    </sucursal>
    <sucursal>
        <nombre>HGZ 2 TULANCINGO</nombre>
        <latitud>20.0914</latitud>
        <longitud>-98.3684</longitud>
        <tipo>HO - UNIDAD DE HOSPITALIZACI'd3N</tipo>
        <direccion>PROLONGACI'd3N GUERRERO Y CARRETERA M'c9XICO-TUXPAN</direccion>
        <telefono>(775) 7534132</telefono>
    </sucursal>
    <sucursal>
        <nombre>HGZMF 1 PACHUCA</nombre>
        <latitud>20.115155</latitud>
        <longitud>-98.723831</longitud>
        <tipo>HO - UNIDAD DE HOSPITALIZACI'd3N</tipo>
        <direccion>AVENIDA MADERO</direccion>
        <telefono>No disponible</telefono>
    </sucursal>
    <sucursal>
        <nombre>HGZMF 5 TULA DE HIDALGO</nombre>
        <latitud>20.0541</latitud>
        <longitud>-99.339</longitud>
        <tipo>HO - UNIDAD DE HOSPITALIZACI'd3N</tipo>
        <direccion>MELCHOR OCAMPO</direccion>
        <telefono>(773) 7320368</telefono>
    </sucursal>
    <sucursal>
        <nombre>HGZMF 6 TEPEJI DEL RIO</nombre>
        <latitud>19.9085</latitud>
        <longitud>-99.3389</longitud>
        <tipo>HO - UNIDAD DE HOSPITALIZACI'd3N</tipo>
        <direccion>AVENIDA MELCHOR OCAMPO</direccion>
        <telefono>(773) 7330784</telefono>
    </sucursal>
    <sucursal>
        <nombre>HGZMF 8 CD. SAHAGUN</nombre>
        <latitud>19.7716</latitud>
        <longitud>-98.5694</longitud>
        <tipo>HO - UNIDAD DE HOSPITALIZACI'd3N</tipo>
        <direccion>AVENIDA CIRCUNVALACI'd3N Y PERIF'c9RICO NORTE</direccion>
        <telefono>(791) 9131198</telefono>
    </sucursal>
    <sucursal>
        <nombre>HOSPITAL B'c1SICO COMUNITARIO HUEHUETLA</nombre>
        <latitud>20.4617</latitud>
        <longitud>-98.068901</longitud>
        <tipo>HO - UNIDAD DE HOSPITALIZACI'd3N</tipo>
        <direccion>DOMICILIO CONOCIDO</direccion>
        <telefono>(774) 7437177</telefono>
    </sucursal>
    <sucursal>
        <nombre>HOSPITAL DEL NI'd1O DIF (GOB. DE HGO.)</nombre>
        <latitud>20.077658</latitud>
        <longitud>-98.776381</longitud>
        <tipo>AS - ESTABLECIMIENTO DE ASISTENCIA SOCIAL</tipo>
        <direccion>NO DISPONIBLE</direccion>
        <telefono>No disponible</telefono>
    </sucursal>
    <sucursal>
        <nombre>HOSPITAL GENERAL ACTOPAN</nombre>
        <latitud>20.262932</latitud>
        <longitud>-98.939758</longitud>
        <tipo>HO - UNIDAD DE HOSPITALIZACI'd3N</tipo>
        <direccion>CARLOS MAYORGA ESQUINA CONSTITUCI'd3N</direccion>
        <telefono>(772) 7272173</telefono>
    </sucursal>
    <sucursal>
        <nombre>HOSPITAL GENERAL DE APAN</nombre>
        <latitud>19.713612</latitud>
        <longitud>-98.465279</longitud>
        <tipo>HO - UNIDAD DE HOSPITALIZACI'd3N</tipo>
        <direccion>LIBRAMIENTO A APAN</direccion>
        <telefono>(748) 9127277</telefono>
    </sucursal>
    <sucursal>
        <nombre>HOSPITAL GENERAL DE LA HUASTECA</nombre>
        <latitud>21.104601</latitud>
        <longitud>-98.423767</longitud>
        <tipo>HO - UNIDAD DE HOSPITALIZACI'd3N</tipo>
        <direccion>CARRETERRA FEDERAL M'c9XICO-TAMPICO KM. 202 A UN COSTADO DEL ENTRONQUE A ATLAPEX</direccion>
        <telefono>(771) 5253780 CELULAR</telefono>
    </sucursal>
    <sucursal>
        <nombre>HOSPITAL GENERAL DE TULA</nombre>
        <latitud>20.0403</latitud>
        <longitud>-99.343002</longitud>
        <tipo>HO - UNIDAD DE HOSPITALIZACI'd3N</tipo>
        <direccion>CARRETERA TULA-EPEJI ENTRONQUE KM. 6 CON EL LIBRAMIENTO DE LA REFINERIA</direccion>
        <telefono>(773) 7320961, 7321444</telefono>
    </sucursal>
    <sucursal>
        <nombre>HOSPITAL GENERAL DEL VALLE DEL MEZQUITAL IXMIQUILPAN</nombre>
        <latitud>20.4338</latitud>
        <longitud>-99.155418</longitud>
        <tipo>HO - UNIDAD DE HOSPITALIZACI'd3N</tipo>
        <direccion>CARRETERA PACHUCA-IXMIQUILPAN KM. 64 TAXADHO</direccion>
        <telefono>(759) 7271238, 7271239</telefono>
    </sucursal>
    <sucursal>
        <nombre>HOSPITAL GENERAL HUICHAPAN</nombre>
        <latitud>20.375433</latitud>
        <longitud>-99.65387</longitud>
        <tipo>HO - UNIDAD DE HOSPITALIZACI'd3N</tipo>
        <direccion>16 DE ENERO ESQUINA JORGE ROJO LUGO</direccion>
        <telefono>(761) 7820143</telefono>
    </sucursal>
    <sucursal>
        <nombre>HOSPITAL GENERAL PACHUCA</nombre>
        <latitud>20.11376</latitud>
        <longitud>-98.722855</longitud>
        <tipo>HO - UNIDAD DE HOSPITALIZACI'd3N</tipo>
        <direccion>CARRETERA PACHUCA-TULANCINGO</direccion>
        <telefono>(771) 7134649</telefono>
    </sucursal>
    <sucursal>
        <nombre>HOSPITAL GENERAL TULA</nombre>
        <latitud>20.058741</latitud>
        <longitud>-99.335941</longitud>
        <tipo>HO - UNIDAD DE HOSPITALIZACI'd3N</tipo>
        <direccion>AVENIDA ORIENTE</direccion>
        <telefono>No disponible</telefono>
    </sucursal>
    <sucursal>
        <nombre>HOSPITAL GENERAL TULANCINGO</nombre>
        <latitud>20.076841</latitud>
        <longitud>-98.373062</longitud>
        <tipo>HO - UNIDAD DE HOSPITALIZACI'd3N</tipo>
        <direccion>L'c1ZARO C'c1RDENAS</direccion>
        <telefono>(775) 7520155</telefono>
    </sucursal>
    <sucursal>
        <nombre>HOSPITAL INTEGRAL ATLAPEXCO</nombre>
        <latitud>21.02107</latitud>
        <longitud>-98.349007</longitud>
        <tipo>HO - UNIDAD DE HOSPITALIZACI'd3N</tipo>
        <direccion>LUIS PASTEUR</direccion>
        <telefono>(789) 8944082</telefono>
    </sucursal>
    <sucursal>
        <nombre>HOSPITAL INTEGRAL CINTA LARGA</nombre>
        <latitud>20.189194</latitud>
        <longitud>-99.22493</longitud>
        <tipo>HO - UNIDAD DE HOSPITALIZACI'd3N</tipo>
        <direccion>CARRETERA MIXQUIAHUALA-TULA</direccion>
        <telefono>(738) 7253604</telefono>
    </sucursal>
    <sucursal>
        <nombre>HOSPITAL INTEGRAL DE TLANCHINOL</nombre>
        <latitud>20.999216</latitud>
        <longitud>-98.65274</longitud>
        <tipo>HO - UNIDAD DE HOSPITALIZACI'd3N</tipo>
        <direccion>FRENTE AL AUDITORIO MUNICIPAL</direccion>
        <telefono>(774) 9740242</telefono>
    </sucursal>
    <sucursal>
        <nombre>HOSPITAL INTEGRAL JACALA</nombre>
        <latitud>21.010408</latitud>
        <longitud>-99.194832</longitud>
        <tipo>HO - UNIDAD DE HOSPITALIZACI'd3N</tipo>
        <direccion>JUVENTINO ROSAS</direccion>
        <telefono>(441) 2933375, 2933376</telefono>
    </sucursal>
    <sucursal>
        <nombre>HOSPITAL OBSTETRICO PACHUCA</nombre>
        <latitud>20.120699</latitud>
        <longitud>-98.774261</longitud>
        <tipo>HO - UNIDAD DE HOSPITALIZACI'd3N</tipo>
        <direccion>AVENIDA PIRACANTOS ESQUINA SOLIDARIDAD</direccion>
        <telefono>(771) 7166192, 7166193</telefono>
    </sucursal>
    <sucursal>
        <nombre>HOSPITAL REGIONAL OTOMI TEPEHUA</nombre>
        <latitud>20.395</latitud>
        <longitud>-98.2034</longitud>
        <tipo>HO - UNIDAD DE HOSPITALIZACI'd3N</tipo>
        <direccion>CARRETERA TULANCINGO-SAN BARTOLO</direccion>
        <telefono>(774) 7553263</telefono>
    </sucursal>
    <sucursal>
        <nombre>HUAJOMULCO</nombre>
        <latitud>20.084272</latitud>
        <longitud>-98.443817</longitud>
        <tipo>CE - UNIDAD DE CONSULTA EXTERNA</tipo>
        <direccion>AUN LADO DE LA ESCUELA PRIMARIA FEDERICO A. CORS</direccion>
        <telefono>No disponible</telefono>
    </sucursal>
    <sucursal>
        <nombre>HUALULA (SAN JUAN HUALULA)</nombre>
        <latitud>20.7078</latitud>
        <longitud>-98.8353</longitud>
        <tipo>CE - UNIDAD DE CONSULTA EXTERNA</tipo>
        <direccion>DOMICILIO CONOCIDO</direccion>
        <telefono>No disponible</telefono>
    </sucursal>
    <sucursal>
        <nombre>HUASCA</nombre>
        <latitud>20.203716</latitud>
        <longitud>-98.576691</longitud>
        <tipo>CE - UNIDAD DE CONSULTA EXTERNA</tipo>
        <direccion>VICENTE GUERRERO</direccion>
        <telefono>(771) 7920108</telefono>
    </sucursal>
    <sucursal>
        <nombre>HUAUTLA</nombre>
        <latitud>21.0305</latitud>
        <longitud>-98.290604</longitud>
        <tipo>CE - UNIDAD DE CONSULTA EXTERNA</tipo>
        <direccion>JOS'c9 P. CABRERA</direccion>
        <telefono>(746) 8970064</telefono>
    </sucursal>
    <sucursal>
        <nombre>HUAUTLA</nombre>
        <latitud>21.029146</latitud>
        <longitud>-98.289834</longitud>
        <tipo>CE - UNIDAD DE CONSULTA EXTERNA</tipo>
        <direccion>RAFAEL OLIVAREZ Y GONZALO DE LACRUZ</direccion>
        <telefono>(771) 1320069</telefono>
    </sucursal>
    <sucursal>
        <nombre>HUAXTHO</nombre>
        <latitud>20.234713</latitud>
        <longitud>-98.961525</longitud>
        <tipo>CE - UNIDAD DE CONSULTA EXTERNA</tipo>
        <direccion>PRINCIPAL</direccion>
        <telefono>No disponible</telefono>
    </sucursal>
    <sucursal>
        <nombre>HUAZALINGO</nombre>
        <latitud>20.980696</latitud>
        <longitud>-98.507706</longitud>
        <tipo>CE - UNIDAD DE CONSULTA EXTERNA</tipo>
        <direccion>AVENIDA MADERO</direccion>
        <telefono>(897) 8960777</telefono>
    </sucursal>
    <sucursal>
        <nombre>HUEHUETLA</nombre>
        <latitud>20.460865</latitud>
        <longitud>-98.075943</longitud>
        <tipo>CE - UNIDAD DE CONSULTA EXTERNA</tipo>
        <direccion>FELIPE ANGELES</direccion>
        <telefono>No disponible</telefono>
    </sucursal>
    <sucursal>
        <nombre>HUEJUTLA DE REYES</nombre>
        <latitud>21.1361</latitud>
        <longitud>-98.4091</longitud>
        <tipo>HO - UNIDAD DE HOSPITALIZACI'd3N</tipo>
        <direccion>CARRETERA M'c9XICO-TAMPICO KM. 213.5</direccion>
        <telefono>(789) 8965565</telefono>
    </sucursal>
    <sucursal>
        <nombre>HUEJUTLA DE REYES</nombre>
        <latitud>21.137363</latitud>
        <longitud>-98.422569</longitud>
        <tipo>CE - UNIDAD DE CONSULTA EXTERNA</tipo>
        <direccion>JAIME NUNO</direccion>
        <telefono>(789) 8960380</telefono>
    </sucursal>
    <sucursal>
        <nombre>HUEJUTLA DE REYES</nombre>
        <latitud>21.1391</latitud>
        <longitud>-98.4141</longitud>
        <tipo>HO - UNIDAD DE HOSPITALIZACI'd3N</tipo>
        <direccion>CARRETERA M'c9XICO TAMPICO KM. 214</direccion>
        <telefono>(789) 8960307</telefono>
    </sucursal>
    <sucursal>
        <nombre>HUEYAPA</nombre>
        <latitud>21.0835</latitud>
        <longitud>-98.6895</longitud>
        <tipo>CE - UNIDAD DE CONSULTA EXTERNA</tipo>
        <direccion>DOMICILIO CONOCIDO</direccion>
        <telefono>No disponible</telefono>
    </sucursal>
    <sucursal>
        <nombre>HUEYAPITA</nombre>
        <latitud>20.07122</latitud>
        <longitud>-98.241356</longitud>
        <tipo>CE - UNIDAD DE CONSULTA EXTERNA</tipo>
        <direccion>HUEYATA POR EL JARD'cdN DE NI'd1OS</direccion>
        <telefono>No disponible</telefono>
    </sucursal>
    <sucursal>
        <nombre>HUEYOTLIPA</nombre>
        <latitud>20.2819</latitud>
        <longitud>-98.4298</longitud>
        <tipo>CE - UNIDAD DE CONSULTA EXTERNA</tipo>
        <direccion>DOMICILIO CONOCIDO</direccion>
        <telefono>No disponible</telefono>
    </sucursal>
    <sucursal>
        <nombre>HUICHAPAN</nombre>
        <latitud>20.380501</latitud>
        <longitud>-99.650398</longitud>
        <tipo>CE - UNIDAD DE CONSULTA EXTERNA</tipo>
        <direccion>DR. JOS'c9 MARIA RIVERA</direccion>
        <telefono>(761) 7822641</telefono>
    </sucursal>
    <sucursal>
        <nombre>HUICHAPAN</nombre>
        <latitud>20.3818</latitud>
        <longitud>-99.6525</longitud>
        <tipo>CE - UNIDAD DE CONSULTA EXTERNA</tipo>
        <direccion>MAR'cdA TAPIA LUGO ESQUIBA SOSTENES VEGA</direccion>
        <telefono>(761) 7822023</telefono>
    </sucursal>
    <sucursal>
        <nombre>HUIST'cdCOLA</nombre>
        <latitud>20.5382</latitud>
        <longitud>-98.8606</longitud>
        <tipo>CE - UNIDAD DE CONSULTA EXTERNA</tipo>
        <direccion>DOMICILIO CONOCIDO</direccion>
        <telefono>No disponible</telefono>
    </sucursal>
    <sucursal>
        <nombre>HUITEL</nombre>
        <latitud>20.164909</latitud>
        <longitud>-99.272537</longitud>
        <tipo>CE - UNIDAD DE CONSULTA EXTERNA</tipo>
        <direccion>CONSTITUCI'd3N</direccion>
        <telefono>No disponible</telefono>
    </sucursal>
    <sucursal>
        <nombre>HUITEPEC</nombre>
        <latitud>21.053717</latitud>
        <longitud>-98.723244</longitud>
        <tipo>CE - UNIDAD DE CONSULTA EXTERNA</tipo>
        <direccion>ENTRADA PRINCIPAL</direccion>
        <telefono>No disponible</telefono>
    </sucursal>
    <sucursal>
        <nombre>HUITEXCALCO DE MORELOS</nombre>
        <latitud>20.275263</latitud>
        <longitud>-99.273125</longitud>
        <tipo>CE - UNIDAD DE CONSULTA EXTERNA</tipo>
        <direccion>JUNTO A LA ESCUEL PRIMARIA JOS'c9 MAR'cdA MORELO</direccion>
        <telefono>No disponible</telefono>
    </sucursal>
    <sucursal>
        <nombre>HUITZILA</nombre>
        <latitud>19.835815</latitud>
        <longitud>-98.981575</longitud>
        <tipo>CE - UNIDAD DE CONSULTA EXTERNA</tipo>
        <direccion>CAMPECHE</direccion>
        <telefono>No disponible</telefono>
    </sucursal>
    <sucursal>
        <nombre>HUITZITZILINGO</nombre>
        <latitud>21.1721</latitud>
        <longitud>-98.6575</longitud>
        <tipo>CE - UNIDAD DE CONSULTA EXTERNA</tipo>
        <direccion>DOMICILIO CONOCIDO</direccion>
        <telefono>No disponible</telefono>
    </sucursal>
    <sucursal>
        <nombre>HUITZNOPALA</nombre>
        <latitud>20.9227</latitud>
        <longitud>-98.7519</longitud>
        <tipo>CE - UNIDAD DE CONSULTA EXTERNA</tipo>
        <direccion>DOMICILIO CONOCIDO</direccion>
        <telefono>No disponible</telefono>
    </sucursal>
    <sucursal>
        <nombre>HUITZOTLACO</nombre>
        <latitud>21.04027</latitud>
        <longitud>-98.377029</longitud>
        <tipo>CE - UNIDAD DE CONSULTA EXTERNA</tipo>
        <direccion>PLAZA PRINCIPAL</direccion>
        <telefono>(789) 8960843</telefono>
    </sucursal>
    <sucursal>
        <nombre>HUMOTITLA COYUCO</nombre>
        <latitud>21.1553</latitud>
        <longitud>-98.3147</longitud>
        <tipo>CE - UNIDAD DE CONSULTA EXTERNA</tipo>
        <direccion>DOMICILIO CONOCIDO</direccion>
        <telefono>No disponible</telefono>
    </sucursal>
    <sucursal>
        <nombre>IGNACIO L'd3PEZ RAYON</nombre>
        <latitud>20.485254</latitud>
        <longitud>-99.270561</longitud>
        <tipo>CE - UNIDAD DE CONSULTA EXTERNA</tipo>
        <direccion>CAMINO A LA LOMA L'd3PEZ RAYON</direccion>
        <telefono>No disponible</telefono>
    </sucursal>
    <sucursal>
        <nombre>IROLO</nombre>
        <latitud>19.7325</latitud>
        <longitud>-98.595558</longitud>
        <tipo>CE - UNIDAD DE CONSULTA EXTERNA</tipo>
        <direccion>AV 5 DE MAYO</direccion>
        <telefono>No disponible</telefono>
    </sucursal>
    <sucursal>
        <nombre>ITATLAXCO</nombre>
        <latitud>20.818876</latitud>
        <longitud>-99.129913</longitud>
        <tipo>CE - UNIDAD DE CONSULTA EXTERNA</tipo>
        <direccion>JUNTO AL TELEFONO</direccion>
        <telefono>(200) 1232719</telefono>
    </sucursal>
    <sucursal>
        <nombre>ITZOACAL</nombre>
        <latitud>21.015581</latitud>
        <longitud>-98.39521</longitud>
        <tipo>CE - UNIDAD DE CONSULTA EXTERNA</tipo>
        <direccion>NO DISPONIBLE</direccion>
        <telefono>No disponible</telefono>
    </sucursal>
    <sucursal>
        <nombre>ITZTAMICHAPA</nombre>
        <latitud>20.8014</latitud>
        <longitud>-98.9579</longitud>
        <tipo>CE - UNIDAD DE CONSULTA EXTERNA</tipo>
        <direccion>DOMICILIO CONOCIDO</direccion>
        <telefono>No disponible</telefono>
    </sucursal>
    <sucursal>
        <nombre>ITZTAZACUALA</nombre>
        <latitud>20.584166</latitud>
        <longitud>-98.840927</longitud>
        <tipo>CE - UNIDAD DE CONSULTA EXTERNA</tipo>
        <direccion>A UN COSTADO DE LA ESCUELA PRIMARIA</direccion>
        <telefono>(771) 1889932</telefono>
    </sucursal>
    <sucursal>
        <nombre>IXCATEPEC</nombre>
        <latitud>21.10111</latitud>
        <longitud>-98.51889</longitud>
        <tipo>CE - UNIDAD DE CONSULTA EXTERNA</tipo>
        <direccion>ATRAS DEL ALBERGUE</direccion>
        <telefono>No disponible</telefono>
    </sucursal>
    <sucursal>
        <nombre>IXCATL'c1N</nombre>
        <latitud>21.0816</latitud>
        <longitud>-98.5344</longitud>
        <tipo>CE - UNIDAD DE CONSULTA EXTERNA</tipo>
        <direccion>DOMICILIO CONOCIDO</direccion>
        <telefono>No disponible</telefono>
    </sucursal>
    <sucursal>
        <nombre>IXCATL'c1N (SAN PEDRO)</nombre>
        <latitud>20.93</latitud>
        <longitud>-98.8158</longitud>
        <tipo>CE - UNIDAD DE CONSULTA EXTERNA</tipo>
        <direccion>DOMICILIO CONOCIDO</direccion>
        <telefono>No disponible</telefono>
    </sucursal>
    <sucursal>
        <nombre>IXCUICUILA</nombre>
        <latitud>20.960636</latitud>
        <longitud>-98.84211</longitud>
        <tipo>CE - UNIDAD DE CONSULTA EXTERNA</tipo>
        <direccion>CERCA DE LA ESCUELA</direccion>
        <telefono>No disponible</telefono>
    </sucursal>
    <sucursal>
        <nombre>IXCUINQUITLAPILCO</nombre>
        <latitud>20.110371</latitud>
        <longitud>-98.938034</longitud>
        <tipo>CE - UNIDAD DE CONSULTA EXTERNA</tipo>
        <direccion>CARRETERA PACHUCA-TULA</direccion>
        <telefono>No disponible</telefono>
    </sucursal>
    <sucursal>
        <nombre>IXMIQUILPAN</nombre>
        <latitud>20.4905</latitud>
        <longitud>-99.2229</longitud>
        <tipo>HO - UNIDAD DE HOSPITALIZACI'd3N</tipo>
        <direccion>AVENIDA PROLONGACI'd3N</direccion>
        <telefono>(759) 7230199</telefono>
    </sucursal>
    <sucursal>
        <nombre>IXMIQUILPAN</nombre>
        <latitud>20.4817</latitud>
        <longitud>-99.2178</longitud>
        <tipo>CE - UNIDAD DE CONSULTA EXTERNA</tipo>
        <direccion>UNI'd3N CON LIBRAMIENTO CARDONAL EL CARMEN</direccion>
        <telefono>(771) 71135377</telefono>
    </sucursal>
    <sucursal>
        <nombre>IXMIQUILPAN</nombre>
        <latitud>20.4881</latitud>
        <longitud>-99.1919</longitud>
        <tipo>HO - UNIDAD DE HOSPITALIZACI'd3N</tipo>
        <direccion>DOMICILIO CONOCIDO</direccion>
        <telefono>(759) 7233979, 7233980, 7233981, 7233982</telefono>
    </sucursal>
    <sucursal>
        <nombre>IXMIQUILPAN</nombre>
        <latitud>20.479939</latitud>
        <longitud>-99.218102</longitud>
        <tipo>CE - UNIDAD DE CONSULTA EXTERNA</tipo>
        <direccion>FRANCISCO JAVIER MINA</direccion>
        <telefono>No disponible</telefono>
    </sucursal>
    <sucursal>
        <nombre>IXMOLINTLA</nombre>
        <latitud>20.7597</latitud>
        <longitud>-98.7314</longitud>
        <tipo>CE - UNIDAD DE CONSULTA EXTERNA</tipo>
        <direccion>DOMICILIO CONOCIDO</direccion>
        <telefono>No disponible</telefono>
    </sucursal>
    <sucursal>
        <nombre>IXTACZOQUICO</nombre>
        <latitud>20.910278</latitud>
        <longitud>-98.264999</longitud>
        <tipo>CE - UNIDAD DE CONSULTA EXTERNA</tipo>
        <direccion>ENTRADA A LA LOCALIDAD</direccion>
        <telefono>No disponible</telefono>
    </sucursal>
    <sucursal>
        <nombre>IXTL'c1HUAC</nombre>
        <latitud>21.095844</latitud>
        <longitud>-98.494217</longitud>
        <tipo>CE - UNIDAD DE CONSULTA EXTERNA</tipo>
        <direccion>A UN COSTADO DEL PANTEON</direccion>
        <telefono>No disponible</telefono>
    </sucursal>
    <sucursal>
        <nombre>IXTL'c1HUACO</nombre>
        <latitud>20.8832</latitud>
        <longitud>-98.703</longitud>
        <tipo>CE - UNIDAD DE CONSULTA EXTERNA</tipo>
        <direccion>DOMICILIO CONOCIDO</direccion>
        <telefono>No disponible</telefono>
    </sucursal>
    <sucursal>
        <nombre>IZTACAPA</nombre>
        <latitud>20.671389</latitud>
        <longitud>-98.937225</longitud>
        <tipo>CE - UNIDAD DE CONSULTA EXTERNA</tipo>
        <direccion>DEL PANTEON</direccion>
        <telefono>No disponible</telefono>
    </sucursal>
    <sucursal>
        <nombre>JACALA</nombre>
        <latitud>21.007954</latitud>
        <longitud>-99.192863</longitud>
        <tipo>CE - UNIDAD DE CONSULTA EXTERNA</tipo>
        <direccion>JUVENTINO ROJAS</direccion>
        <telefono>(441) 2933067</telefono>
    </sucursal>
    <sucursal>
        <nombre>JACALA</nombre>
        <latitud>21.008681</latitud>
        <longitud>-99.189463</longitud>
        <tipo>CE - UNIDAD DE CONSULTA EXTERNA</tipo>
        <direccion>CARRETERA FEDERAL M'c9XICO - LAREDO</direccion>
        <telefono>(441) 2933067, 0457711628566 CELULAR</telefono>
    </sucursal>
    <sucursal>
        <nombre>JACALILLA</nombre>
        <latitud>21.064808</latitud>
        <longitud>-99.041527</longitud>
        <tipo>CE - UNIDAD DE CONSULTA EXTERNA</tipo>
        <direccion>ENTRADA A LA LOCALIDAD A UN COSTADO IGLESIA</direccion>
        <telefono>No disponible</telefono>
    </sucursal>
    <sucursal>
        <nombre>JAGUEY</nombre>
        <latitud>20.240833</latitud>
        <longitud>-99.606667</longitud>
        <tipo>CE - UNIDAD DE CONSULTA EXTERNA</tipo>
        <direccion>PANTALEON GARCIA</direccion>
        <telefono>No disponible</telefono>
    </sucursal>
    <sucursal>
        <nombre>JAGUEY BLANCO</nombre>
        <latitud>20.276506</latitud>
        <longitud>-99.15213</longitud>
        <tipo>CE - UNIDAD DE CONSULTA EXTERNA</tipo>
        <direccion>5 DE MAYO</direccion>
        <telefono>No disponible</telefono>
    </sucursal>
    <sucursal>
        <nombre>JAGUEY DE TELLEZ ESTACI'd3N TELLEZ</nombre>
        <latitud>19.98</latitud>
        <longitud>-98.788612</longitud>
        <tipo>CE - UNIDAD DE CONSULTA EXTERNA</tipo>
        <direccion>SOLIDARIDAD 2000</direccion>
        <telefono>No disponible</telefono>
    </sucursal>
    <sucursal>
        <nombre>JALAMELCO</nombre>
        <latitud>20.8068</latitud>
        <longitud>-98.6899</longitud>
        <tipo>CE - UNIDAD DE CONSULTA EXTERNA</tipo>
        <direccion>DOMICILIO CONOCIDO</direccion>
        <telefono>No disponible</telefono>
    </sucursal>
    <sucursal>
        <nombre>JALAPA</nombre>
        <latitud>20.671925</latitud>
        <longitud>-98.515846</longitud>
        <tipo>CE - UNIDAD DE CONSULTA EXTERNA</tipo>
        <direccion>A UN COSTADO DEL DEP'd3SITO DE AGUA</direccion>
        <telefono>No disponible</telefono>
    </sucursal>
    <sucursal>
        <nombre>JALPO</nombre>
        <latitud>21.109165</latitud>
        <longitud>-98.712502</longitud>
        <tipo>CE - UNIDAD DE CONSULTA EXTERNA</tipo>
        <direccion>JUNTO AL ESTANQUE</direccion>
        <telefono>No disponible</telefono>
    </sucursal>
    <sucursal>
        <nombre>JALTEPEC</nombre>
        <latitud>20.0871</latitud>
        <longitud>-98.3791</longitud>
        <tipo>CE - UNIDAD DE CONSULTA EXTERNA</tipo>
        <direccion>DOMICILIO CONOCIDO</direccion>
        <telefono>No disponible</telefono>
    </sucursal>
    <sucursal>
        <nombre>JALTOCAN</nombre>
        <latitud>21.135925</latitud>
        <longitud>-98.534912</longitud>
        <tipo>CE - UNIDAD DE CONSULTA EXTERNA</tipo>
        <direccion>AVENIDA LUIS AMADOR</direccion>
        <telefono>(789) 8558018</telefono>
    </sucursal>
    <sucursal>
        <nombre>JAVIER ROJO G'd3MEZ</nombre>
        <latitud>20.070124</latitud>
        <longitud>-98.415031</longitud>
        <tipo>CE - UNIDAD DE CONSULTA EXTERNA</tipo>
        <direccion>MICHOAC'c1N</direccion>
        <telefono>(771) 7183047</telefono>
    </sucursal>
    <sucursal>
        <nombre>JILIAPAN</nombre>
        <latitud>20.975445</latitud>
        <longitud>-99.339882</longitud>
        <tipo>CE - UNIDAD DE CONSULTA EXTERNA</tipo>
        <direccion>JUNTO AL TELEBACHILLERATO</direccion>
        <telefono>(759) 7231823</telefono>
    </sucursal>
    <sucursal>
        <nombre>JONACAPA</nombre>
        <latitud>20.4392</latitud>
        <longitud>-99.5325</longitud>
        <tipo>CE - UNIDAD DE CONSULTA EXTERNA</tipo>
        <direccion>DOMICILIO CONOCIDO</direccion>
        <telefono>No disponible</telefono>
    </sucursal>
    <sucursal>
        <nombre>JOS'c9 MAR'cdA MORELOS SAN JOS'c9</nombre>
        <latitud>19.680834</latitud>
        <longitud>-98.576385</longitud>
        <tipo>CE - UNIDAD DE CONSULTA EXTERNA</tipo>
        <direccion>FELIPE ANGELES ESQUINA JU'c1REZ</direccion>
        <telefono>(748) 9121850</telefono>
    </sucursal>
    <sucursal>
        <nombre>JOS'c9 MAR'cdA PINO SU'c1REZ</nombre>
        <latitud>20.246504</latitud>
        <longitud>-99.4217</longitud>
        <tipo>CE - UNIDAD DE CONSULTA EXTERNA</tipo>
        <direccion>AVENIDA CHAPANTONGO</direccion>
        <telefono>No disponible</telefono>
    </sucursal>
    <sucursal>
        <nombre>JU'c1REZ</nombre>
        <latitud>20.7821</latitud>
        <longitud>-98.8295</longitud>
        <tipo>CE - UNIDAD DE CONSULTA EXTERNA</tipo>
        <direccion>DOMICILIO CONOCIDO</direccion>
        <telefono>No disponible</telefono>
    </sucursal>
    <sucursal>
        <nombre>JULI'c1N VILLAGRAN</nombre>
        <latitud>20.396606</latitud>
        <longitud>-99.107368</longitud>
        <tipo>CE - UNIDAD DE CONSULTA EXTERNA</tipo>
        <direccion>A UN COSTADO DE LA ESCUELA PRIMARIA</direccion>
